osm_id,code,fclass,name,latitude,longitude
"267556057",2404,guesthouse,Friendship Guesthouse,3.679,97.656
"268842942",2301,restaurant,Mama's,5.876,95.255
"268842942",2404,guesthouse,Mama's,5.876,95.255
"330062706",2301,restaurant,"RM Simpang Raya, T. Tinggi",3.328,99.158
"330062729",2301,restaurant,"Restoran India, T. Tinggi",3.327,99.158
"330062753",2601,bank,"Bank Muamalat, T. Tinggi",3.327,99.158
"330062760",2101,pharmacy,"Apotik Kimia Farma, T. Tinggi",3.328,99.162
"330062832",2601,bank,"Bank Syariah Mandiri, T. Tinggi",3.329,99.159
"330062842",2101,pharmacy,"Apotik Keluarga, T. Tinggi",3.329,99.159
"330062847",2601,bank,"Panin Bank, T. Tinggi",3.329,99.159
"330062851",2601,bank,"Bank Mestika, T. Tinggi",3.331,99.160
"330062855",2101,pharmacy,"Apotik Bersama, T. Tinggi",3.331,99.160
"330062873",2301,restaurant,"RM Saiyo, T. Tinggi",3.331,99.160
"330062878",2601,bank,"Bank BRI - Ahmad Yani, T. Tinggi",3.328,99.158
"330062883",2110,hospital,Lab. Klinik Gatot Subroto,3.330,99.159
"330062886",2101,pharmacy,"Apotik Kita, T. Tinggi",3.329,99.159
"330062893",2101,pharmacy,"Apotik Sempurna, T. Tinggi",3.329,99.159
"330062899",2602,atm,"ATM Mandiri - Sudirman, T. Tinggi",3.331,99.160
"330062903",2601,bank,Bank BCA,3.332,99.161
"330062904",2110,hospital,"Lab. Klinik Prodia, T. Tinggi",3.333,99.161
"330062906",2601,bank,"Bank BTN, T. Tinggi",3.332,99.161
"330062913",2601,bank,"Bank Danamon, T. Tinggi",3.332,99.161
"330063164",2101,pharmacy,"Apotik Bulian, T. Tinggi",3.330,99.159
"330063167",2501,supermarket,"Central Raya, T. Tinggi",3.330,99.158
"330063168",2101,pharmacy,"Apotik Surya Baru, T. Tinggi",3.329,99.159
"330063169",2101,pharmacy,"Apotik Saudara, T. Tinggi",3.330,99.159
"330063205",2110,hospital,"RS Umum, T. Tinggi",3.330,99.156
"330063229",2101,pharmacy,"Apotik Tangan Mas, T. Tinggi",3.330,99.158
"330063234",2501,supermarket,"Great Market, T. Tinggi",3.326,99.162
"330063892",2001,police,Polres T. Tinggi,3.325,99.162
"330078209",2601,bank,"Bank BNI, T. Tinggi",3.333,99.161
"330082312",2251,sports_centre,GOR Tebing Tinggi,3.324,99.158
"330082315",2501,supermarket,"Supermarket Irian,Tebing Tinggi",3.325,99.159
"330083002",2082,school,"SMPN 1, Tebing Tinggi",3.327,99.165
"330083003",2082,school,"SMPN 4, Tebing Tinggi",3.326,99.166
"330083238",2601,bank,"Bank Syariah Sumut, Tebing Tinggi",3.327,99.164
"330083290",2601,bank,"Bank SUMUT, Tebing Tinggi",3.327,99.164
"330083842",2601,bank,"Bank Mandiri, Tebing Tinggi",3.327,99.165
"330083853",2601,bank,"Bank BRI, Tebing Tinggi",3.327,99.165
"330084023",2082,school,"Perg. Nusantara, Tebing Tinggi",3.327,99.165
"330086745",2724,memorial,"Tugu Peringatan 13 Desember 1945, Tebing Tinggi",3.328,99.162
"336494999",2541,car_dealership,,0.440,101.323
"457337084",2505,department_store,Ramayana,0.529,101.447
"457837520",2110,hospital,rs bunda,0.685,101.572
"460436680",2741,picnic_site,Danau Buatan,0.584,101.475
"460449426",2950,tower,TVRI,0.575,101.472
"461577444",2543,doityourself,Global Bangungan,0.502,101.426
"461802011",2301,restaurant,Ayam Goreng Suharti,0.536,101.432
"462084840",2302,fast_food,Van Hollano,0.531,101.448
"462086850",2401,hotel,Grand Elite,0.532,101.424
"462098395",2005,post_office,Kantor POS,0.523,101.469
"462098397",2401,hotel,Pangeran,0.505,101.453
"462161178",2301,restaurant,Rumah Makan Minan Harapan,0.491,101.487
"462171363",2401,hotel,Labersa Hotel,0.438,101.482
"462171366",2253,swimming_pool,Water Boom,0.449,101.478
"465135769",2601,bank,BCA,0.521,101.447
"470793865",2301,restaurant,Resthouse Taman Tasik Seminai,0.654,101.822
"485714810",2015,graveyard,Kuburan,0.795,102.047
"485777233",2742,viewpoint,,0.802,102.040
"485777236",2742,viewpoint,,0.806,102.035
"485854836",2505,department_store,Ramayana,0.673,101.599
"485897854",2016,market_place,Pasar Rumbai,0.560,101.442
"503786177",2401,hotel,Bintan Agro Beach Resort,1.033,104.657
"508066389",2083,kindergarten,Bangkinang,0.351,101.027
"512314124",2301,restaurant,Nelayan Grill,1.193,104.425
"514081873",2303,cafe,Ripples By The Pool,1.192,104.424
"514081944",2305,bar,Pasir Panjang Beach Bar,1.192,104.426
"524700683",2601,bank,Bank Mandiri,1.144,104.012
"525157728",2951,comms_tower,Menara Telkom,1.160,104.002
"525899410",2005,post_office,Kantor Pos Nagoya Plasa,1.145,104.012
"542894904",2401,hotel,Nagoya Plasa,1.146,104.011
"544526886",2251,sports_centre,,5.544,95.318
"547533116",2301,restaurant,Pizza Hut,5.556,95.322
"547533898",2501,supermarket,Market,5.561,95.320
"577447488",2722,museum,Museum Daerah Sumatera Utara,3.568,98.696
"577449434",2082,school,universitas islam sumatera utara,3.562,98.694
"577449525",2030,recycling,,3.570,98.690
"577449829",2505,department_store,Yuki Dept. Store,3.573,98.691
"577453256",2016,market_place,Pusat pasar,3.590,98.686
"577453384",2723,monument,Monumen Medan Area,3.591,98.684
"577453445",2723,monument,Gedung Perjuangan Medan Area,3.592,98.684
"577453982",2723,monument,Monumen Medan Perjuangan,3.598,98.691
"577453984",2725,artwork,Taman Budaya,3.600,98.681
"577454865",2110,hospital,Puskesmas,3.533,98.690
"577457709",2082,school,SD Abdi Sukma,3.546,98.691
"577458131",2082,school,Madrasah Al Falah,3.547,98.693
"577459204",2082,school,PAUD,3.546,98.691
"577459205",2082,school,STM 1,3.551,98.691
"577459206",2082,school,STM 4,3.551,98.691
"577459207",2082,school,SMEA 3,3.550,98.691
"577459297",2082,school,SD 060812,3.549,98.691
"577459302",2082,school,STM Ntah Apa,3.550,98.693
"577462702",2303,cafe,JJS Kanal,3.532,98.691
"577462702",2741,picnic_site,JJS Kanal,3.532,98.691
"577463342",2082,school,Pesantren,3.526,98.682
"577463693",2082,school,SD Negeri 21,3.543,98.699
"577464337",2723,monument,Samsat,3.546,98.699
"577493625",2082,school,SMA Negeri 2 Medan,3.546,98.682
"595359839",2737,fort,Fort de Kock,-0.300,100.368
"595359839",2721,attraction,Fort de Kock,-0.300,100.368
"595359841",2722,museum,Rumah Adat,-0.301,100.370
"595359842",2742,viewpoint,Kelok 9,-0.068,100.698
"595359844",2723,monument,Equator Monument,0.002,100.726
"601846788",2258,track,Go-Kart,1.162,104.040
"601846790",2301,restaurant,Golden Cheng Hoo Boat,1.163,104.043
"601846791",2205,playground,Tempat Bermain,1.162,104.042
"601846792",2082,school,SMK Pelayaran Maritim Nasional,1.174,104.031
"601851058",2005,post_office,Kantor Pos Batam Centre,1.131,104.051
"601851062",2082,school,SMK Kolese Tiara Bangsa,1.133,104.048
"601855868",2252,pitch,Tennis Court PLH,1.126,104.058
"603294185",2742,viewpoint,Panorama Danau Kembar,-1.044,100.740
"624937224",2401,hotel,Holiday Inn Batam,1.075,103.933
"624941334",2301,restaurant,Delima Seafood Restaurant,1.078,103.930
"624941334",2723,monument,Delima Seafood Restaurant,1.078,103.930
"624947079",2401,hotel,Harris Resort Batam,1.083,103.937
"624950721",2721,attraction,Batam Cable Ski,1.080,103.938
"624970178",2732,ruins,Snow City,1.078,103.934
"625264583",2258,track,,1.086,103.941
"625264583",2721,attraction,,1.086,103.941
"652746404",2742,viewpoint,Puncak,3.551,98.120
"665484664",2401,hotel,Jungle Inn,3.550,98.116
"665484670",2303,cafe,,3.551,98.123
"665497417",2501,supermarket,,2.752,98.744
"665497965",2722,museum,Museum Huta Bolon Simanindo,2.752,98.744
"665509631",2401,hotel,Tabo Cottages,2.670,98.856
"671502689",2082,school,,2.602,98.936
"700622977",2301,restaurant,Sate/Gulai Kambing Aviari,1.052,103.973
"700636723",2602,atm,ATM Bank Mandiri,1.049,103.969
"700642527",2401,hotel,Acacia Hotel,1.117,103.953
"700643132",2512,clothes,Acan Tailor,1.101,103.949
"700645183",2008,town_hall,Balai Pertemuan Tg.Riau,1.099,103.930
"700645206",2253,swimming_pool,Indah Puri Swimming P.,1.139,103.961
"700645213",2101,pharmacy,Kimia Farma Aviari,1.049,103.969
"700645220",2601,bank,Mandiri Bank,1.108,103.953
"700645233",2504,mall,Mitra Mall B.Aji,1.053,103.968
"700645239",2255,golf_course,Paradise Bay Golf Club,1.058,103.957
"700645244",2101,pharmacy,Apotik Kimia Farma,1.109,103.952
"700645257",2082,school,SDN 11 Tg.Riau,1.102,103.948
"700645258",2082,school,SMA Negeri 1 Batam,1.114,103.951
"700645260",2082,school,Sekolah Basic Kristen,1.053,103.955
"700645329",2204,park,Lotus Lake Park,1.125,103.930
"700645390",2541,car_dealership,Yamaha Motor,1.054,103.968
"701909722",2016,market_place,Pasar Rakyat Tembesi,1.037,103.985
"701939374",2602,atm,"Atm Bca, Sagulung",1.041,103.983
"701939389",2602,atm,Atm Mandiri,1.041,103.983
"701940763",2511,convenience,Citi Mart Mini Market,1.044,103.977
"701940769",2504,mall,Saras Super Mall,1.044,103.977
"701949992",2950,tower,Free Internet Park Sagulung,1.037,103.977
"701966336",2110,hospital,Rsb Graga Hermina,1.045,103.974
"701982800",2081,university,Universitas Putera Batam,1.046,103.969
"702002584",2082,school,SMPN 21 Batam,1.037,103.962
"702002716",2082,school,Sdn 019 Kecamatan Sei Beduk,1.032,103.976
"702002990",2082,school,TKI Yaa Bunayya 1,1.048,103.981
"702009815",2110,hospital,Rumah Sakit Aini,1.052,103.978
"702021798",2082,school,SMPN 026 Batam,1.055,103.978
"702021818",2110,hospital,Puskesmas Batu Aji,1.055,103.978
"702039294",2602,atm,Atm Ocbc Nisp,1.051,103.969
"702039327",2602,atm,Atm Bca,1.053,103.968
"702070734",2016,market_place,Pasar Mandalay,1.041,103.957
"702100174",2950,tower,Tower Celular,1.044,103.971
"702155069",2082,school,SDIT Lukmanul Hakim,1.046,103.983
"702158809",2082,school,SMK Negeri 1 Batam,1.044,103.990
"702158851",2082,school,SD-SMP-SMA Muhammadiyah,1.045,103.990
"702170282",2082,school,SDN 2 Tembesi,1.037,104.000
"702173180",2302,fast_food,Soft Drink Shop,1.038,103.998
"702173180",2511,convenience,Soft Drink Shop,1.038,103.998
"702179118",2016,market_place,Aviari Pasar dan Plasa,1.050,103.970
"702182328",2602,atm,Atm Bca,1.040,104.001
"702191755",2001,police,,1.054,103.930
"702191760",2002,fire_station,Fire Fighter (Pemadam Kebakaran Sagulung),1.053,103.931
"702191932",2602,atm,Atm Mandiri (Pel.Sagulung),1.046,103.926
"702196805",2082,school,Ponpes. Internasional Bina Ummah,1.047,103.984
"702327648",2110,hospital,SATPOL PP,1.048,103.943
"702328167",2082,school,Sdn 009,1.040,103.946
"702328173",2082,school,Sdn 008,1.040,103.947
"702329016",2082,school,Sdn 011,1.036,103.955
"702331020",2001,police,Police (Pos Polisi Pel.Sagulung),1.027,103.925
"702331035",2082,school,Smpn 27 Batam,1.029,103.958
"702331036",2950,tower,Tower Celuler,1.023,103.959
"702331252",2950,tower,Tower Indosat Bukit Mata Kucing,1.090,103.971
"702331253",2701,tourist_info,Post Kebun Pembibitan Pemko,1.091,103.964
"702331544",2401,hotel,Harris Hotel,1.082,103.937
"702331551",2301,restaurant,Pujasera,1.081,103.936
"702331555",2001,police,,1.081,103.937
"702332585",2008,town_hall,Lurah Tg.Riau Office,1.100,103.935
"702339776",2723,monument,Statue (Music Tradisional) S.Harapan,1.106,103.956
"702341132",2301,restaurant,Kak Dadut Rest.,1.112,104.003
"702341392",2253,swimming_pool,Southlink Swimming P.,1.114,103.996
"702347752",2401,hotel,Crown Vista Hotel,1.119,104.013
"702347754",2253,swimming_pool,Vista Fitnes And Swimming Pool,1.119,104.014
"702347764",2563,car_rental,Bus Charter,1.118,104.016
"702349807",2099,public_building,Direktorat Pengamanan Batam,1.121,104.019
"702349808",2099,public_building,Dinas Perhubungan,1.120,104.019
"702349813",2001,police,Police Hq(Poltabes Barelang),1.118,104.020
"702349814",2010,prison,Lembaga Pemasyarakatan Kelas Iia Batam,1.119,104.020
"702355084",2950,tower,Balmon (Freq.Radio Monitoring),1.126,103.935
"702355093",2701,tourist_info,Pelni Office/Ticketing,1.129,103.929
"702355102",2008,town_hall,Lurah Tg.Pinggir,1.130,103.926
"702355107",2301,restaurant,Keindahan Suasana,1.126,103.928
"702355108",2002,fire_station,Fire Fighter Pel.Sekupang,1.126,103.928
"702364803",2301,restaurant,Aneka Selera Sea Food,0.943,104.078
"702364811",2950,tower,Celular Tower,0.901,104.132
"702364813",2950,tower,Celular Tower,0.889,104.142
"702364816",2950,tower,Celular Tower,0.844,104.172
"702364818",2950,tower,Celular Tower,0.842,104.174
"702365781",2301,restaurant,Cita Rasa Seafood,0.826,104.244
"702366946",2082,school,SMPN 18 Sembulang,0.853,104.261
"702366951",2301,restaurant,Sea Food Pak Long,0.856,104.264
"702670745",2005,post_office,Dhl,1.133,104.018
"702670755",2701,tourist_info,Trans Panorama Ticketing,1.132,104.018
"702670793",2082,school,Sekolah Al-Azhar,1.134,104.020
"702672444",2001,police,Polsek Lubuk Baja,1.132,104.017
"702672512",2008,town_hall,Camat Lubuk Baja Office,1.132,104.016
"702672836",2110,hospital,Klinik Baloi,1.132,104.016
"702672861",2120,doctors,Casa Medika Clinic,1.132,104.017
"702672877",2525,mobile_phone_shop,Telkomsel,1.133,104.017
"702672880",2110,hospital,RS Ibu Dan Anak Permata Hati,1.133,104.016
"702672890",2120,doctors,Prodia Laboratorium,1.134,104.017
"702672905",2525,mobile_phone_shop,Indosat,1.132,104.017
"702672915",2082,school,Y Pddk K Imnl,1.134,104.016
"702678239",2602,atm,Atm Mandiri,1.124,104.016
"702686660",2601,bank,UOB Buana Bank,1.134,104.029
"702710893",2002,fire_station,Fire Fighter Duriangkang,1.089,104.033
"703792003",2950,tower,Batam Tv,1.180,104.014
"703792581",2950,tower,Rcti Batam,1.179,104.013
"703792589",2082,school,SDN 05 Batu Ampar,1.174,104.017
"703809317",2099,public_building,Kantor Pelabuhan OB,1.162,104.003
"703809447",2001,police,Police (Polsekta Batu Ampar),1.162,104.003
"703811808",2099,public_building,Custom (Bea Dan Cukai),1.161,104.004
"703811833",2099,public_building,Camat Batu Ampar Office,1.162,104.005
"703811867",2099,public_building,Kua Batu Ampar,1.162,104.006
"703812174",2099,public_building,(Tax Office) Kpp Pertama,1.161,104.009
"703813061",2602,atm,Atm Mandiri,1.156,104.002
"703813205",2301,restaurant,Wey Wey Seafood,1.153,103.998
"703813227",2401,hotel,Urbay Amir Hotel,1.155,104.000
"703814975",2501,supermarket,GOGO Supermarket Harbour Bay,1.154,104.002
"703815606",2511,convenience,Circle K Minimarket (24Hrs),1.150,104.003
"703815614",2301,restaurant,Rm.Padang Bundo Kanduang Jodoh,1.150,104.003
"703823558",2504,mall,Plaza Top 100 Jodoh,1.147,104.004
"703823598",2301,restaurant,Rm.Padang Simpang Tiga Jodoh,1.148,104.004
"703825156",2301,restaurant,Podok Kuring,1.154,104.008
"703825738",2301,restaurant,Martabak Har (Indian Food),1.148,104.010
"703825743",2601,bank,Bank Jabar Banten,1.148,104.011
"703825746",2511,convenience,Cirkel K Minimarket (24Hrs),1.148,104.013
"703825750",2601,bank,Bank Syariah Mandiri,1.148,104.012
"703826469",2099,public_building,(Tax Office) Kpp Madya,1.161,104.011
"703839192",2401,hotel,Hotel 01,1.133,104.047
"703839236",2301,restaurant,Sanur Restaurant,1.132,104.049
"703839237",2101,pharmacy,Kimia Farma,1.132,104.049
"703856231",2742,viewpoint,Ocarina,1.152,104.055
"703857972",2741,picnic_site,Ocarina,1.153,104.057
"703864436",2742,viewpoint,Lake/Junggle Jembatan Sei.Ladi (Nice View),1.111,104.010
"703873647",2001,police,Post Police,1.071,104.025
"703892621",2422,camp_site,Bumi Perkemahan Raja Ali Haji,1.046,104.108
"705062461",2082,school,SMP Kartini Sekupang,1.107,103.951
"705062464",2082,school,SMP Negeri 3 Batam,1.107,103.953
"705065131",2082,school,SDN 6,1.102,103.970
"705065132",2082,school,SMPN 20,1.102,103.969
"705065134",2302,fast_food,Martabak Sari Eco,1.103,103.966
"705066410",2082,school,Sekolah Kasih Kurnia (Kristen),1.103,103.968
"705081077",2201,theatre,Rumah Hitam Live Theatre,1.111,103.949
"705081078",2301,restaurant,Rumah Hitam Restourant,1.111,103.949
"705081082",2601,bank,BCA,1.107,103.954
"705081083",2601,bank,BNI,1.107,103.954
"705081085",2301,restaurant,Bundo Kanduang,1.107,103.954
"705081175",2504,mall,STC (Star Trade Center) Mall Sekupang,1.107,103.955
"705081228",2950,tower,Taman Internet Sei.Harapan,1.109,103.952
"705081950",2008,town_hall,Lurah Sei Harapan Office,1.109,103.954
"705081971",2602,atm,Atm Permata Bank,1.108,103.952
"705090630",2501,supermarket,Pasar Mekar Sari,1.110,103.977
"707543708",2082,school,SDN 14,1.109,103.988
"707544012",2001,police,Polisi Hutan Pos,1.102,103.989
"707544025",2903,drinking_water,Air Terjun Tiban,1.103,103.988
"707545956",2082,school,SMAN 4,1.103,103.982
"707560798",2601,bank,Mandiri Bank,1.113,103.978
"707560909",2301,restaurant,Bandreks 555,1.115,103.985
"707562191",2301,restaurant,Podomoro Cinesefood,1.115,103.984
"707562201",2301,restaurant,Sate Madura,1.115,103.984
"707562556",2008,town_hall,Lurah Tiban Indah Office,1.118,103.978
"707562588",2120,doctors,Clinic Asih Tiban Indah,1.118,103.977
"707563749",2082,school,SD Sandy Putra,1.117,103.978
"707563769",2082,school,SDN 007 Tiban,1.117,103.980
"707563945",2602,atm,Bca Atm,1.114,103.984
"707563992",2101,pharmacy,Kimia Farma,1.113,103.984
"707564014",2564,car_wash,B Car Wash Tiban Ii,1.114,103.978
"707565227",2950,tower,Free Internet Park Tiban Cntr.,1.113,103.982
"707578540",2082,school,SD Al Azhar Tiban,1.118,103.977
"707578570",2082,school,SDN 02 Tiban,1.119,103.978
"707578724",2511,convenience,Minimarket Sumber Harapan Tiban,1.119,103.978
"707601810",2082,school,Malay School,1.118,103.968
"707605397",2008,town_hall,Kantor Lurah Patam Lestari,1.115,103.969
"707608324",2950,tower,Kei Fm,1.114,103.967
"707617663",2401,hotel,Hotel Ekaputra,1.120,103.955
"707685842",2255,golf_course,Indah Puri Driving Range,1.139,103.962
"707689075",2082,school,SDN 03 Patam Lestari,1.127,103.960
"707690414",2120,doctors,First Aid (Pustu Patam),1.128,103.964
"707694708",2082,school,SDIT Ulil Albab,1.122,103.975
"707695632",2950,tower,Celular Tower,1.122,103.977
"707758965",2903,drinking_water,Dam Muka Kuning,1.064,104.011
"707768319",2008,town_hall,Lurah Muka Kuning Office,1.067,104.019
"707809795",2302,fast_food,KFC,1.072,104.024
"707809923",2602,atm,Ocbc Nisp Atm,1.072,104.024
"707809961",2601,bank,Bpr Dana Nusantara,1.073,104.025
"718918119",2306,food_court,BIP Food Court,1.067,104.024
"718919180",2001,police,Pospol MKGR,1.043,103.983
"718921236",2301,restaurant,Panasera,1.057,104.035
"718922043",2001,police,,1.065,104.036
"718924252",2602,atm,Bank Central Asia,1.068,104.024
"718924705",2602,atm,Bank Negara Indonesia 1946,1.068,104.024
"718924724",2511,convenience,Circle K,1.068,104.024
"718925098",2950,tower,Tower Batam Bintan Telecomunication,1.062,104.019
"718932433",2602,atm,Bca Atm Pom Bensin Uib,1.121,104.005
"718941145",2601,bank,Bank Mestika,1.120,104.004
"718944187",2525,mobile_phone_shop,"Rmp.Taman Kota, Baloi",1.124,104.005
"718947462",2082,school,SMK Kartini,1.122,104.006
"719039383",2082,school,SMA Negeri 12 Batam,1.135,103.995
"719039496",2015,graveyard,Pekuburan Tg.Uma,1.149,103.997
"719039586",2082,school,Smp Hang Kesturi,1.146,103.994
"719041320",2082,school,Sdn 06 Tg.Uma,1.146,103.996
"719041471",2008,town_hall,Lurah Tanjung Uma Office,1.146,103.995
"719041515",2504,mall,Psr Tg Uma,1.148,103.999
"719041556",2082,school,Sd N 004,1.146,103.996
"719041580",2082,school,Sd N 006,1.146,103.996
"719041595",2082,school,Tk Myng Suri,1.148,103.995
"719058583",2541,car_dealership,Indomobil Auto Dealer,1.131,104.017
"719058594",2901,toilet,M3 Building,1.129,104.016
"719058603",2601,bank,Bank Muamalat,1.128,104.017
"719059065",2005,post_office,Pcp Expedition,1.132,104.014
"719059104",2082,school,Sd Al Barkah,1.131,104.014
"719059161",2008,town_hall,Lurah Baloi Indah Office,1.131,104.012
"719061107",2251,sports_centre,Inkai Indoor Sport Hall,1.132,104.012
"719062314",2082,school,Tk Cia,1.127,104.007
"719066142",2110,hospital,Rs Bersalin Mitra Bunda,1.132,104.005
"719066146",2082,school,Sdn.003 L.Baja,1.132,104.003
"719066147",2082,school,Sdn.09 L Baja,1.131,104.004
"736599302",2082,school,SDN 007,1.133,104.014
"736599362",2110,hospital,Batam Medical Centre,1.139,104.015
"736599488",2301,restaurant,Pizza Hut,1.140,104.015
"736600581",2402,motel,89 Hotel,1.138,104.008
"736600642",2120,doctors,Dr.Soritua Sarumpait (Internist),1.137,104.016
"736600715",2203,cinema,21 Cinema Bcs,1.132,104.010
"736602132",2401,hotel,Swiss Inn (Hotel),1.134,104.007
"736602177",2101,pharmacy,Kimia Farma,1.137,104.016
"736602214",2511,convenience,Circle K 24 Mini Market,1.137,104.016
"736602265",2601,bank,Danamon Bank,1.139,104.016
"736604481",2120,doctors,Promed Medical Clinic And Lab,1.137,104.016
"736604504",2601,bank,Bank Ekonomi,1.139,104.016
"736604543",2601,bank,UOB,1.136,104.008
"736609234",2401,hotel,Pagoda Hotel,1.140,104.004
"736609235",2502,bakery,Holand Bakery,1.135,104.008
"736609263",2402,motel,H Grand Mtiara,1.139,104.014
"736609310",2402,motel,H Indah,1.138,104.011
"736609342",2402,motel,H Kolekta,1.139,104.015
"736609361",2402,motel,H Ozon,1.137,104.008
"736609362",2401,hotel,Permata Hotel,1.140,104.015
"736609364",2008,town_hall,Lurah Batu Slicin Office,1.132,104.013
"736609369",2110,hospital,RS Elisabeth,1.136,104.015
"736609397",2082,school,SDN 02 Lubuk Baja,1.137,104.016
"736609400",2082,school,SDN 05 Lubuk Baja,1.137,104.016
"736609401",2082,school,Sklh Advent,1.137,104.013
"736609402",2082,school,PG- TK- SD- SMP- SMA Ananda,1.138,104.013
"736609405",2082,school,Tk Gading Mas,1.137,104.016
"736609411",2082,school,Tk Yos Sudrso,1.136,104.015
"736609455",2082,school,Masjid An' Nur,1.138,104.012
"736609539",2504,mall,Top 100 Penuin,1.136,104.009
"736609543",2601,bank,CIMB Niaga,1.135,104.008
"736609604",2302,fast_food,Kentucky Fied Chicken - Raden Fatah,1.136,104.017
"736609630",2401,hotel,Romance Hotel,1.141,104.004
"736609664",2402,motel,Harmoni Suites,1.143,104.012
"736609690",2301,restaurant,Bubur Jakarta,1.143,104.011
"736609691",2301,restaurant,Hawai Sea Food,1.144,104.011
"736609692",2301,restaurant,Pa Ciu Ciu 24 Food Court,1.144,104.012
"736610092",2401,hotel,Winsor Hotel,1.142,104.013
"736610278",2301,restaurant,Rm.Padang Sederhana,1.142,104.012
"736610324",2101,pharmacy,Vitka Farma,1.142,104.012
"736610345",2601,bank,Permata Bank,1.142,104.012
"736610379",2301,restaurant,Winsor Food Court,1.141,104.014
"736612828",2701,tourist_info,Batam Fast Ticketing,1.144,104.012
"736618141",2401,hotel,Ramayana Hotel,1.144,104.011
"736618330",2110,hospital,Puskesmas Lubuk Baja,1.144,104.002
"736618337",2301,restaurant,Winsord Seafod,1.141,104.013
"736618366",2501,supermarket,RUPAT KARYA,1.140,104.012
"736618835",2601,bank,BNI,1.143,104.014
"736618836",2101,pharmacy,Kimia Farma,1.143,104.015
"736618838",2121,dentist,Dentist Suhermanto,1.143,104.015
"736618841",2401,hotel,888 Hotel (*),1.141,104.015
"736618847",2301,restaurant,Seafood 888,1.141,104.015
"736619033",2541,car_dealership,Honda Nagoya,1.141,104.017
"736619879",2301,restaurant,Sop Ikan Istimewa (Yongki Seafood),1.146,104.007
"736619895",2302,fast_food,McDonalds (24Hrs),1.150,104.007
"736619901",2401,hotel,Harmoni Hotel,1.150,104.007
"736619908",2301,restaurant,Warong Teh Trek,1.157,104.004
"736619921",2301,restaurant,Rm.P.Salero Bagindo(24Hrs),1.145,104.006
"736619927",2301,restaurant,Sop Kondro Anging Mamiri,1.151,104.011
"736620773",2501,supermarket,Hypermart Nagoya Hill,1.146,104.012
"736621122",2016,market_place,Fruit Market (Pasar Buah Kali 5),1.147,104.008
"736621123",2301,restaurant,Gado-Gado Gembira,1.146,104.009
"736621124",2301,restaurant,Vegetarian,1.146,104.009
"736621173",2401,hotel,Panorama Regency Hotel,1.149,104.006
"736621174",2016,market_place,Pasar Jodoh (Wet Market),1.151,104.005
"736621175",2401,hotel,Mayestic Hotel,1.151,104.006
"736621176",2511,convenience,Mini Market Jodoh Center,1.150,104.005
"736622163",2203,cinema,21 Cinema Nagoya Hill,1.147,104.012
"736622164",2601,bank,Panin Bank,1.149,104.012
"736622170",2306,food_court,Martabak Sari Eco Nagoya,1.146,104.011
"736622171",2601,bank,Bank Niaga,1.148,104.010
"736622176",2401,hotel,The Hills Hotel,1.148,104.013
"736622205",2302,fast_food,KFC,1.150,104.008
"736622220",2601,bank,Mandiri Bank,1.147,104.010
"736622223",2301,restaurant,Sate Padang (Dinner),1.146,104.011
"736622226",2401,hotel,Nagoya Plaza Hotel,1.146,104.011
"736622235",2502,bakery,Morning Bakery Jodoh,1.153,104.004
"736622237",2601,bank,BRI,1.147,104.010
"736622238",2601,bank,Commonwealth Bank,1.149,104.010
"736622239",2601,bank,Permata Bank,1.150,104.009
"736622241",2001,police,Pos Police,1.152,104.005
"736622245",2401,hotel,Hotel Singapore (*),1.151,104.007
"736622247",2601,bank,Uob Buana Bank,1.149,104.009
"736622248",2601,bank,Bri Bank,1.153,104.005
"736622257",2401,hotel,The K Hotel,1.148,104.016
"736622259",2005,post_office,Tiki,1.150,104.012
"736625575",2601,bank,Bank Riau,1.146,104.011
"736625577",2401,hotel,Sentosa Hotel,1.153,104.011
"736625608",2511,convenience,Circle K Minimarket (24Hrs),1.151,104.009
"736625742",2601,bank,Bank Btn Syariah,1.149,104.012
"736625766",2005,post_office,Elteha,1.150,104.012
"736625857",2601,bank,Bca Bank (Hq),1.152,104.006
"736628811",2081,university,Universitas Ibnu Sina Seraya,1.146,104.016
"736628817",2525,mobile_phone_shop,"Telkom,Pt(Seraya)",1.145,104.018
"736628855",2401,hotel,Evitel Hotel,1.147,104.016
"736628978",2301,restaurant,Food Court Srideli,1.155,104.019
"736630221",2602,atm,Atm Ocbc Nisp,1.145,104.018
"736630222",2401,hotel,Hotel Pelita,1.144,104.020
"736630224",2301,restaurant,Saung Sunda Sawargi Restaurant,1.145,104.018
"736630242",2401,hotel,Merlin Hotel,1.145,104.018
"736630261",2601,bank,Btn Bank (Hq) Pelita,1.145,104.019
"736630406",2401,hotel,H Btm Indah,1.145,104.017
"736630412",2401,hotel,H Seraya,1.149,104.017
"736630438",2082,school,SDN 08 Lubuk Baja,1.138,104.021
"736630473",2008,town_hall,Lurah Kampung Pelita Office,1.146,104.019
"736634123",2301,restaurant,Sofonta Cafe,1.144,104.022
"736634131",2301,restaurant,Peak Pujasera,1.143,104.023
"736634910",2602,atm,Atm Mandiri,1.158,104.018
"736634968",2602,atm,Atm Bni,1.158,104.018
"736645445",2110,hospital,Klinik Bersalin Elizabeth,1.184,104.022
"736645502",2082,school,SDN 04 Tg.Sengkuang,1.185,104.020
"736645604",2001,police,Pltd Tg.Sengkuang,1.179,104.023
"736660516",2082,school,SDN 03 Tg. Sengkuang,1.185,104.020
"738831358",2306,food_court,tessc,5.564,95.298
"760472234",2950,tower,Traffic Control Tower,1.120,104.114
"760473206",2602,atm,Mandiri,1.101,104.076
"760475061",2723,monument,Statue (Music Tradisional),1.101,104.078
"760475143",2602,atm,BCA,1.102,104.076
"760475240",2084,college,Akademi Perawat,1.107,104.084
"760475486",2008,town_hall,Kunia Djaya Alam,1.102,104.080
"760478599",2008,town_hall,Cendana Residence,1.101,104.087
"760485865",2082,school,SMAN 3,1.131,104.103
"760486360",2723,monument,Statue (Music Tradisional),1.121,104.101
"760489501",2082,school,SMPN 28,1.124,104.094
"760490493",2082,school,Sekolah Permata Nusantara Permata Bandara,1.138,104.116
"760493708",2602,atm,Atm Mandiri,1.121,104.140
"760493857",2082,school,SDN 10 Nongsa,1.127,104.141
"760493940",2301,restaurant,Rm.Padang Batu Besar,1.150,104.132
"760494001",2301,restaurant,Rezeki Seafood,1.154,104.140
"760495953",2301,restaurant,Seafood Cahaya Baru/Apek Kolor,1.146,104.143
"760496050",2741,picnic_site,Sekilak,1.137,104.140
"760496869",2741,picnic_site,Pentas Sekilak,1.143,104.149
"760499302",2016,market_place,Pasar Nongsa,1.143,104.139
"760502507",2082,school,Pondok Pesantren Darul Falah-Nongsa,1.147,104.127
"760521717",2082,school,Madrasah Tsanawiyah Al Falah,1.147,104.126
"760522881",2008,town_hall,Lurah Batu Besar Office,1.153,104.129
"760530229",2082,school,SMPN 08,1.160,104.095
"760540845",2742,viewpoint,Nongsa Point Marina,1.196,104.098
"760547087",2082,school,SDN 006 Nongsa,1.186,104.107
"760554294",2082,school,SDN 07 Nongsa,1.087,104.135
"760556413",2081,university,Pondok Pesantren Al Kautsar,1.065,104.121
"760565090",2008,town_hall,Camat Sei Beduk Office,1.040,104.084
"760584397",2082,school,SMPN 17,1.039,104.126
"765006897",2950,tower,,5.553,95.319
"798711742",2742,viewpoint,,3.187,98.503
"799261466",2082,school,Pesantren Teknology Riau,0.439,101.558
"799396870",2501,supermarket,Lotte Mart,0.506,101.421
"800505087",2301,restaurant,,3.283,98.557
"800519003",2404,guesthouse,Erotic Accomodation,3.257,98.541
"800519031",2301,restaurant,Tourist Restaurant,3.283,98.557
"800519062",2301,restaurant,Tourist Restaurant,3.244,98.536
"800519070",2742,viewpoint,View,3.244,98.536
"800519096",2602,atm,,3.578,98.661
"803066122",2401,hotel,Angsana Resort,1.186,104.343
"805539542",2721,attraction,,2.911,98.681
"806519401",2742,viewpoint,,2.780,98.819
"806519403",2742,viewpoint,,2.920,98.525
"806537063",2742,viewpoint,,2.647,98.965
"806537079",2016,market_place,,2.652,98.862
"806537081",2401,hotel,Carolina Hotel,2.668,98.861
"806537111",2301,restaurant,Rumba Pizza,2.671,98.861
"806537113",2721,attraction,Batak King Grave,2.651,98.861
"806537116",2602,atm,,2.667,98.941
"806537122",2401,hotel,Hotel Silington,2.670,98.862
"806537143",2301,restaurant,Hong Kong,2.665,98.931
"806537145",2301,restaurant,,2.764,98.741
"820883614",2602,atm,,2.939,98.610
"820883617",2721,attraction,Batak Village,3.018,98.552
"820947026",2742,viewpoint,,1.620,99.204
"820947027",2602,atm,,2.334,99.064
"820947030",2742,viewpoint,,1.878,99.056
"820947035",2602,atm,ATM BRI,2.334,99.064
"820947038",2303,cafe,,1.852,99.079
"820947039",2001,police,,1.494,99.337
"820947042",2401,hotel,Torsibohinai,1.566,99.285
"820947043",2721,attraction,Volcanic Sulpher,2.075,98.944
"820947054",2303,cafe,Rodabaru,2.334,99.064
"820947057",2602,atm,,2.215,98.974
"820947058",2602,atm,,2.028,98.962
"820947059",2081,university,,2.256,99.003
"820947062",2742,viewpoint,,1.943,99.016
"820983154",2721,attraction,Hotspring,0.348,100.068
"820983160",2001,police,,0.556,100.022
"820983165",2082,school,,1.248,99.343
"820983171",2742,viewpoint,Waterfall,1.157,99.423
"820983178",2016,market_place,Rubberstore,0.622,99.849
"820983182",2303,cafe,,0.346,100.069
"820983202",2082,school,,0.763,99.573
"820983205",2301,restaurant,Wisman Resaurant,0.650,99.784
"820983234",2602,atm,,0.360,100.060
"820983250",2401,hotel,Hotel Natama,1.381,99.275
"820983252",2742,viewpoint,,0.686,99.675
"820983254",2742,viewpoint,,0.714,99.637
"820983276",2602,atm,,0.859,99.563
"820983284",2721,attraction,,0.683,99.685
"820983285",2742,viewpoint,,0.651,99.762
"820986744",2602,atm,,0.139,100.167
"820986746",2721,attraction,Real Equator crossing,0.000,100.220
"820986749",2742,viewpoint,,-0.137,100.242
"820986758",2742,viewpoint,,0.044,100.215
"820986762",2302,fast_food,KFC,-0.305,100.369
"820986772",2602,atm,,-0.307,100.370
"820986775",2742,viewpoint,,-0.308,100.365
"820986779",2721,attraction,War Memorial,0.101,100.190
"820986781",2602,atm,,-0.301,100.373
"820986789",2401,hotel,Pusako Hotel,-0.300,100.383
"821082491",2721,attraction,Weaving Workshop,-0.404,100.395
"821082493",2602,atm,,-0.340,100.383
"821082504",2742,viewpoint,,-0.487,100.337
"821082505",2301,restaurant,Tourist Restaurant,-0.426,100.574
"821082515",2732,ruins,Old Railroad,-0.532,100.506
"821082518",2001,police,,-0.500,100.558
"821082519",2742,viewpoint,Palace Replica,-0.472,100.621
"821082526",2742,viewpoint,Sawa View,-0.601,100.285
"851214334",2301,restaurant,Salero Basamo,1.106,104.065
"851224943",2101,pharmacy,Apotek Keluarga,1.104,104.069
"851233132",2016,market_place,Pasar Mega Legenda,1.101,104.059
"851233968",2082,school,SMP Negri 12 Batam,1.105,104.056
"856921618",2082,school,SDN 05 Batam Kota,1.105,104.042
"856922022",2253,swimming_pool,Swimming Pool Duta Mas,1.108,104.045
"856936357",2082,school,Kristen Basic School,1.116,104.048
"856947977",2602,atm,BCA,1.115,104.057
"856963024",2602,atm,BCA,1.105,104.072
"856963050",2602,atm,Mandiri,1.105,104.072
"856982252",2082,school,Sekolah Kalista,1.117,104.059
"856985541",2723,monument,Ka'Bah Manasik Haji,1.125,104.056
"856985632",2402,motel,Pih Hotel,1.126,104.057
"856985677",2001,police,Police (Polsekta Btm.Ctr),1.126,104.057
"856987866",2402,motel,Asrama Haji Kota Batam,1.125,104.055
"857011842",2723,monument,,1.129,104.055
"857013469",2602,atm,ATM BNI Mega Mall,1.129,104.055
"857013516",2602,atm,ATM BCA Mega Mall,1.129,104.055
"857013545",2602,atm,ATM Mandiri Mega Mall,1.129,104.055
"857013569",2203,cinema,XXI Cinema Mega Mall,1.129,104.056
"857013639",2302,fast_food,KFC Mega Mall,1.130,104.055
"857017667",2602,atm,Atm Bank Riau,1.128,104.055
"857017769",2601,bank,Bank Indonesia (Bi),1.128,104.057
"857022022",2502,bakery,Morning Bakery Ferry Term. Btm Cntr,1.131,104.055
"857034654",2251,sports_centre,Futsal Family Arena,1.129,104.047
"857035555",2301,restaurant,Resto Kediri Restaurant,1.127,104.051
"857038003",2301,restaurant,Rm.Padang Sederhana Batam Centre,1.128,104.052
"857038038",2601,bank,Bukopin,1.128,104.051
"857038137",2301,restaurant,Sop Ikan Istimewa (Yongki Seafood),1.128,104.050
"857038175",2301,restaurant,Restaurant Pondok Gurih,1.128,104.052
"898909061",2301,restaurant,Stamina Ocu,1.131,104.048
"898910247",2082,school,Sekolah Nobel,1.126,104.045
"898911602",2082,school,Sekolah Yos Sudarso,1.125,104.044
"898919718",2601,bank,BRI,1.131,104.051
"898921052",2301,restaurant,Obonk Steak And Ribs,1.128,104.038
"898921064",2601,bank,Bukopin,1.129,104.038
"898921076",2301,restaurant,Pondok Ikan Bakar,1.129,104.038
"898921912",2301,restaurant,Seloka (Breakfast Rest.),1.120,104.043
"899058784",2502,bakery,Layers Layer Cake Shop,1.132,104.011
"901171138",2253,swimming_pool,Kolam Renang Orchid Park,1.122,104.024
"901171652",2082,school,SD dan SMP Kalam Kudus,1.122,104.024
"901197364",2401,hotel,Sky View Hotel *,1.126,104.030
"901197383",2301,restaurant,Maharaja(Indian Food),1.126,104.031
"901197401",2302,fast_food,KFC,1.126,104.031
"901197419",2501,supermarket,Gelael Mini Market,1.126,104.031
"901197734",2303,cafe,Alfresco Bulevart Cape (Dinner),1.125,104.027
"901203702",2301,restaurant,Pujasera Green Land (Dinner),1.111,104.041
"901203711",2001,police,Police Post (Pos Polisi Kara),1.111,104.041
"901204956",2082,school,SDN 07 Batam Kota,1.109,104.039
"901205009",2251,sports_centre,Badminton Hall (Gor),1.107,104.040
"901205309",2602,atm,Atm Bca,1.105,104.039
"902766959",2015,graveyard,Yayasan Pekuburan Sei.Panas,1.134,104.027
"902767014",2301,restaurant,Mie Tarempa,1.128,104.030
"902767015",2502,bakery,Holand Bakery Edukit,1.126,104.025
"902767020",2523,stationery,Edu Kit Stationary,1.126,104.025
"902896486",2005,post_office,Tnt Expedition,1.137,104.023
"902900022",2601,bank,Bank Riau Kepri,1.131,104.030
"902900058",2502,bakery,Morning Bakery S.Panas,1.130,104.030
"902900186",2129,veterinary,Griya Medika,1.128,104.031
"902901313",2601,bank,CIMB Niaga,1.128,104.031
"902901372",2601,bank,BNI,1.128,104.034
"902901415",2601,bank,BCA,1.128,104.034
"902901465",2402,motel,Sydney Hotel,1.128,104.033
"902901506",2301,restaurant,Ikan Bakar Pak Ndut,1.128,104.033
"902904798",2301,restaurant,Pak Datok,1.130,104.038
"902904958",2402,motel,Batam Center Hotel,1.133,104.040
"902910813",2082,school,SMP Negeri 10 Batam,1.136,104.031
"902914860",2301,restaurant,Mie Aceh,1.134,104.030
"902914898",2082,school,Sekolah Yehonala,1.134,104.032
"902916640",2544,furniture_shop,Pasar Second Bukit Beruntung,1.137,104.035
"902923823",2082,school,SMP Negeri 6 Batam,1.144,104.028
"902927350",2082,school,SDN 005 Bengkong,1.144,104.025
"902927386",2082,school,Sdn.06/04,1.145,104.024
"902927483",2110,hospital,RSB Nuruddiniah,1.143,104.028
"902944149",2082,school,SMPN 30,1.154,104.036
"902944170",2082,school,Tk/Yayasan Al Hijrah Bengkong,1.154,104.037
"902957516",2082,school,Pg-Tk-Sd Kristen Cahaya Bangsa,1.148,104.027
"902960606",2008,town_hall,Lurah Bengkong Indah Office,1.146,104.026
"902981762",2501,supermarket,Top 100 Bengkong,1.153,104.024
"902983712",2504,mall,Bengkong Shopping Centre,1.158,104.026
"902988879",2082,school,SDN 06 Bengkong,1.156,104.032
"902990366",2082,school,Smk Al Jabar,1.156,104.025
"903027788",2082,school,SMPN 04,1.161,104.019
"903027857",2082,school,Sekolah Hang Tuah,1.163,104.020
"903027890",2099,public_building,Pasar Melati,1.158,104.023
"903033519",2301,restaurant,Salero Basamo,1.159,104.021
"903033687",2101,pharmacy,Apotic Najmi,1.159,104.027
"903034884",2082,school,SDN 09 Bengkong,1.161,104.024
"903048733",2504,mall,Jodoh Centre Bengkong,1.158,104.022
"903105316",2950,tower,Tower Sutet,1.161,104.036
"903110564",2251,sports_centre,Lapangan Bola B.Laut,1.158,104.036
"903117931",2401,hotel,Golden View Hotel,1.162,104.037
"903121912",2301,restaurant,Golden Prawn Seafood,1.160,104.037
"903129451",2741,picnic_site,Golden Prawn Picnic Area,1.162,104.041
"903271290",2602,atm,Atm Mandiri,1.139,104.027
"903271326",2301,restaurant,Restourant Ikan Daun,1.129,104.048
"903286511",2082,school,SMKN 03,1.024,104.058
"945777687",2082,school,SD Al Kaffah,1.100,104.052
"973131941",2543,doityourself,Toko Besi 3L,-3.786,103.559
"990017328",2543,doityourself,3L Technologies,-3.786,103.559
"997516672",2305,bar,Yogi's Bar,1.052,104.707
"1010423863",2601,bank,Mandiri Bank,1.151,104.007
"1040515979",2301,restaurant,Kelong Restaurant 533,1.134,104.279
"1068988734",2001,police,Pos Polisi Simpang Jam,1.124,104.019
"1069011993",2001,police,,1.150,104.007
"1075352380",2401,hotel,Flamboyant,5.856,95.269
"1076619111",2255,golf_course,Sukajadi Driving Range,1.097,104.035
"1076641104",2001,police,,1.105,103.955
"1076646001",2001,police,,1.131,104.018
"1076826265",2255,golf_course,Sijori Driving Range,1.116,103.950
"1076826280",2253,swimming_pool,Sijori Swimming Pool,1.116,103.950
"1077255487",2723,monument,Titik Nol Kilometer,5.906,95.217
"1077255487",2721,attraction,Titik Nol Kilometer,5.906,95.217
"1083537558",2501,supermarket,,3.576,98.702
"1083537620",2505,department_store,Yuki Sukaramai,3.587,98.706
"1132135090",2511,convenience,,1.119,104.058
"1164677083",2001,police,Polsekta Nongsa,1.052,104.125
"1188763571",2101,pharmacy,Budi Farma,1.146,104.008
"1234039462",2082,school,,3.512,98.794
"1239765725",2401,hotel,Orchid Hotel,-0.303,100.368
"1243176220",2404,guesthouse,Tin Tin,-1.048,100.412
"1243177005",2404,guesthouse,Carlos,-1.047,100.412
"1243177808",2302,fast_food,,-1.048,100.413
"1264396122",2721,attraction,Rejosari,-5.294,105.188
"1264713030",2083,kindergarten,Red Cross Federation,5.525,95.292
"1264713040",2082,school,Sekolah Dasar,5.523,95.293
"1280037876",2404,guesthouse,Yulia's,5.879,95.253
"1280039840",2404,guesthouse,Eddie's Homestay,5.475,95.240
"1280039843",2511,convenience,,5.475,95.240
"1280039844",2404,guesthouse,Mitabu Homestay,5.477,95.242
"1280039848",2404,guesthouse,Losmen Nurmas,5.474,95.240
"1280041468",2401,hotel,Hotel Delta,3.572,98.683
"1293085371",2955,lighthouse,,5.827,95.348
"1293085997",2955,lighthouse,,1.525,102.435
"1294294477",2008,town_hall,Salmart Batam,1.136,104.007
"1294294480",2005,post_office,,1.103,104.054
"1294328872",2082,school,Sekolah Bina Nusantara Batam,1.106,104.041
"1294331088",2501,supermarket,Kepri Mall,1.101,104.037
"1294415611",2501,supermarket,Mustafa Plaza,1.107,104.082
"1297001470",2083,kindergarten,TK Al Wafa,1.109,104.096
"1297012695",2016,market_place,Pasar,1.113,104.090
"1298194613",2016,market_place,Pasar Mustafa Plaza,1.107,104.082
"1298244212",2303,cafe,Coffee shop Solong,5.552,95.356
"1299381179",2303,cafe,Five Corner Coffee,5.556,95.322
"1299381199",2302,fast_food,KFC,5.556,95.323
"1299381209",2501,supermarket,Pante Pirak Swalayan,5.555,95.322
"1299381230",2302,fast_food,Texas Chicken,5.558,95.327
"1299381237",2302,fast_food,AW American Food,5.557,95.322
"1299381277",2005,post_office,Pos Indonesia,5.556,95.326
"1300610151",2301,restaurant,Food Center,5.551,95.330
"1308293145",2302,fast_food,Burger lezat,0.658,101.681
"1308311008",2082,school,Padang Matinggi,2.112,99.828
"1308374041",2082,school,SMA Negeri 1 Pendopo,-3.812,103.012
"1308374945",2110,hospital,Pancuran Kerambil,1.735,98.786
"1308458186",2529,beauty_shop,tanjung uncang,1.060,103.921
"1308468861",2722,museum,museum Buya Hamka,-0.356,100.218
"1319726496",2251,sports_centre,VKVT Batam,1.107,104.028
"1324451166",2016,market_place,Panbil Mall,1.072,104.024
"1352355795",2511,convenience,BatamOnlineShop.Com,1.100,104.059
"1354753841",2401,hotel,Tan Dirih,-0.293,100.227
"1354777304",2301,restaurant,Waterfront Zalino,-0.289,100.230
"1356123469",2742,viewpoint,Panorama Sungai Landai,-0.313,100.305
"1356190223",2301,restaurant,Sederhana,-0.312,100.372
"1360108930",2301,restaurant,Pempek Tini 628,0.528,101.455
"1362282922",2301,restaurant,Rumah Makan Simpang Raya,1.272,101.201
"1363204376",2401,hotel,Grand Sakura,3.597,98.686
"1363237789",2301,restaurant,Nelayan,3.590,98.678
"1364806662",2722,museum,Museum Sultan Mahmud Badaruddin II,-2.990,104.761
"1364806665",2016,market_place,Pasar 16 Ilir,-2.989,104.764
"1364806736",2724,memorial,Monumen Ampera,-2.990,104.761
"1364806772",2501,supermarket,Internasional Plaza,-2.984,104.758
"1364806774",2743,zoo,Hutan Wisata Punti Kayu,-2.945,104.726
"1365149897",2205,playground,Mikie Funland,3.203,98.524
"1365279128",2742,viewpoint,,2.743,98.858
"1365315031",2401,hotel,Danau Toba Cottages,2.660,98.931
"1366447325",2501,supermarket,Carrefour Palembang,-2.976,104.742
"1366451354",2601,bank,Bank BCA,-2.978,104.749
"1366451377",2601,bank,Bank Mandiri,-2.979,104.748
"1366455947",2501,supermarket,Palembang Indah Mall (PIM),-2.985,104.754
"1366455972",2501,supermarket,Ramayana,-2.983,104.751
"1366461350",2724,memorial,Tank Monument,-2.980,104.756
"1366461364",2401,hotel,Hotel Sanjaya,-2.978,104.752
"1366489356",2401,hotel,Hotel Swarna Dwipa,-2.991,104.747
"1366489424",2001,police,Polda Sumsel,-2.961,104.740
"1370002465",2301,restaurant,Sate Ayam Dahlia,0.523,101.438
"1370923833",2401,hotel,Atsari,2.666,98.936
"1370923855",2401,hotel,Wisata Bahari,2.668,98.937
"1370923858",2401,hotel,Khas Parapat,2.665,98.931
"1370923862",2721,attraction,Stone Chairs of Ambarita,2.679,98.837
"1370923878",2401,hotel,Toba,2.667,98.937
"1376492705",2512,clothes,Kaos Batamku,1.047,103.977
"1376494737",2512,clothes,Kaos Batamku,1.047,103.977
"1376528745",2016,market_place,Pasar Alai,-0.925,100.367
"1376528746",2110,hospital,RS Ibnu Sina,-0.921,100.367
"1388627424",2084,college,Akademi Keperawatan Kesdam I Bukit Barisan,-0.950,100.372
"1388627431",2401,hotel,Hotel Sawahan,-0.946,100.368
"1388627442",2110,hospital,RS Reksodiwiryo,-0.951,100.372
"1388627445",2082,school,SD Kartika I-10 / I-11 Padang,-0.950,100.377
"1388627455",2082,school,SMA Kartika I-5 Padang,-0.944,100.377
"1388627464",2082,school,SMK N 2 Padang,-0.945,100.378
"1388648407",2082,school,Madrasah Aliyah PGAI,-0.943,100.365
"1388648408",2082,school,Madrasah Aliyah PGAI,-0.943,100.366
"1388976648",2082,school,SMA 2 Padang,-0.930,100.354
"1388976651",2016,market_place,Pasar Raya Padang,-0.950,100.360
"1389000716",2016,market_place,Pasar Ulakkarang,-0.911,100.350
"1395839244",2302,fast_food,Warung Tekko,1.152,104.006
"1404220280",2512,clothes,outlet #02 Oleh-oleh Kaos Batamku,1.101,104.063
"1431618917",2512,clothes,Kaos Batam,1.121,104.090
"1454059749",2301,restaurant,My Mie (Noodles),1.141,104.011
"1456118775",2301,restaurant,Nasi Goreng Kambing 4W,1.139,104.008
"1456159971",2001,police,"Pos Babinsa, Windsor",1.138,104.008
"1469493281",2950,tower,PT. Solnet Indonesia,1.127,104.034
"1491823410",2511,convenience,JJ Collection (warungbutik.com),1.148,104.009
"1493875476",2501,supermarket,BCS Mall,1.132,104.010
"1503638171",2950,tower,Sumex,1.131,104.058
"1513658353",2016,market_place,Pasar Sei Harapan,1.104,103.953
"1517623488",2016,market_place,Pasar Pancur,1.028,104.064
"1519107223",2504,mall,Top 100,1.040,104.001
"1519631981",2016,market_place,Pasar Siteba,-0.897,100.368
"1522784671",2082,school,SDN 006 Sei Beduk,1.030,104.050
"1529180468",2082,school,SDN 02 Lubuak Aluang,-0.643,100.331
"1529180469",2082,school,SDN 14,-0.640,100.327
"1529180470",2082,school,SDN 23 Lubuak Aluang,-0.648,100.305
"1534414480",2099,public_building,Kantor Camat Ulakan,-0.695,100.205
"1534414510",2083,kindergarten,Pendidikan Anak Usia Dini,-0.683,100.209
"1534414515",2082,school,SDN 01 Ulakan,-0.696,100.203
"1534414529",2082,school,SMPN 1 Ulakan,-0.693,100.198
"1538517545",2903,drinking_water,IPA Gn. Pangilun,-0.909,100.369
"1538527460",2601,bank,Bank Nagari,-0.897,100.366
"1550946363",2001,police,Kantor Dir. Lalin Polda Sumbar,-0.964,100.357
"1573276236",2951,comms_tower,,-0.959,100.403
"1583863043",2950,tower,,-0.962,100.390
"1584249380",2601,bank,Bank Central Asia,1.069,104.025
"1584254736",2601,bank,HSBC,1.069,104.025
"1594530490",2011,embassy,Singapore Embassy,0.512,101.449
"1597688279",2504,mall,TOP 100,1.040,104.002
"1621194450",2401,hotel,Standard Hotel,1.146,104.004
"1631912518",2301,restaurant,Coffee rest,-0.929,100.362
"1636794428",2950,tower,,-0.903,100.397
"1645524103",2304,pub,New Place Pub & Restaurant,1.150,104.008
"1661864318",2722,museum,,1.112,104.028
"1668695489",2082,school,SMA Negeri 2 Tanjungkarang,-5.426,105.255
"1668695496",2904,fountain,,-5.422,105.258
"1681875123",2421,shelter,gedung baru mku,-0.895,100.348
"1682688701",2008,town_hall,,0.491,101.063
"1692112529",2110,hospital,RSIA Bunda,-0.919,100.365
"1694899803",2903,drinking_water,,1.137,104.028
"1694932460",2404,guesthouse,PT. Mhe-Demag Indonesia,1.134,104.028
"1694932461",2016,market_place,Minimarket,1.134,104.031
"1708629009",2401,hotel,Hotel Grand Zuri,0.532,101.449
"1731455889",2082,school,Putera Batam,1.046,103.969
"1734425750",2725,artwork,,-0.962,100.363
"1734613772",2511,convenience,Gbabe Fashion,1.147,104.009
"1734622081",2511,convenience,CONG JAYA,1.130,104.039
"1736925477",2950,tower,,-0.953,100.389
"1766014452",2401,hotel,Hotel Sarah Juli,3.996,97.339
"1766025182",2082,school,SMA Negeri Seribu Bukit,3.985,97.308
"1766036576",2082,school,SDIT Bunayya,3.983,97.345
"1773750271",2251,sports_centre,Indoor Tennis,1.104,104.079
"1773750274",2253,swimming_pool,Kolam Renang,1.104,104.079
"1787010320",2082,school,SMK YPP Lubuk Alung,-0.666,100.287
"1787010395",2082,school,SMA N 1 Lubuk Alung,-0.667,100.286
"1787010404",2001,police,Polsek Lubuk Alung,-0.666,100.287
"1787027402",2110,hospital,Puskesmas Lubuk Alung,-0.670,100.287
"1787027403",2082,school,SMP N 1 Lubuk Alung,-0.670,100.287
"1787033925",2001,police,Polantas Lubuk Alung,-0.684,100.291
"1787033926",2601,bank,BRI Lubuk Alung,-0.688,100.292
"1790736825",2950,tower,,-0.933,100.367
"1791420375",2950,tower,,-0.946,100.367
"1791510767",2950,tower,,-0.948,100.381
"1801816792",2721,attraction,Pasar Cinde,-2.980,104.755
"1806979218",2953,observation_tower,,3.642,98.885
"1822631779",2306,food_court,Star City Square,0.523,101.447
"1823643189",2081,university,FK UNAND,-0.941,100.366
"1823647684",2084,college,MM UNANDA,-0.937,100.366
"1823648622",2082,school,SMKN 6 PADANG,-0.937,100.365
"1823663504",2405,hostel,,-0.939,100.366
"1823663730",2301,restaurant,RED CHILI'S,-0.938,100.366
"1823664249",2303,cafe,MENTAWAI SURF,-0.938,100.366
"1823664731",2301,restaurant,RUMAH MAKAN,-0.938,100.366
"1842520918",2007,library,Perpustakaan Pusat UNP,-0.896,100.347
"1842658554",2511,convenience,MPALH UNP,-0.896,100.350
"1844168164",2501,supermarket,Swalayan PHR,1.253,101.204
"1848044111",2082,school,SD N3 Blangkejeren,3.995,97.339
"1848046924",2401,hotel,Hotel Ari Noval,3.995,97.337
"1848049041",2501,supermarket,Sejahtera,3.990,97.343
"1848049044",2401,hotel,Marmas Green Hotel,3.978,97.347
"1848053412",2401,hotel,Hotel Wahyu,3.997,97.338
"1848070432",2301,restaurant,Food Court,3.994,97.342
"1848325869",2082,school,Islamic Boarding School,4.007,97.336
"1848335984",2303,cafe,Mr. Soleman's Cafe,3.986,97.257
"1849648319",2401,hotel,Grand Nagan Hotel,4.113,96.290
"1852220110",2001,police,Gayo Lues Police Department,4.000,97.333
"1854287917",2082,school,SD N2 Blangkejeren,3.995,97.343
"1854294333",2082,school,SMP N1 Blangkejeren,3.980,97.309
"1856532579",2511,convenience,,-2.928,104.740
"1856532586",2511,convenience,,-2.927,104.740
"1871228091",2401,hotel,Duma Sari,2.669,98.858
"1871228095",2401,hotel,Endy's,2.676,98.857
"1871228099",2401,hotel,Lilis,2.671,98.862
"1871228114",2401,hotel,Judita,2.678,98.854
"1871228120",2401,hotel,Kennedy's,2.675,98.858
"1871228124",2401,hotel,Rosita,2.672,98.861
"1871228125",2401,hotel,Toledo Inn,2.677,98.852
"1871228126",2082,school,,2.672,98.854
"1871228127",2401,hotel,Linda's,2.669,98.858
"1871228129",2404,guesthouse,Romlan,2.673,98.861
"1871228137",2401,hotel,Toledo Inn 2,2.676,98.856
"1871228140",2401,hotel,Smiley's,2.668,98.852
"1871228145",2401,hotel,Reggae Guest House & Restaurant,2.677,98.851
"1871228148",2401,hotel,Lekjon Cottage & restaurant,2.677,98.856
"1871228156",2401,hotel,Samosir Cottages,2.678,98.854
"1871228158",2401,hotel,Anju,2.678,98.854
"1871228163",2401,hotel,Bernard's Guesthouse,2.672,98.861
"1871228166",2401,hotel,RedDorz,2.675,98.857
"1871228168",2401,hotel,Sahatma,2.669,98.858
"1871228171",2401,hotel,Horas Family Home,2.670,98.855
"1879016459",2741,picnic_site,Taman Dwipangga,-5.446,105.262
"1895742205",2601,bank,Bank Syariah Mandiri (BSM),1.130,104.038
"1897670416",2950,tower,,1.118,104.045
"1897671478",2005,post_office,Kantor POS Unit Kijang,0.851,104.602
"1918253480",2001,police,,-0.935,100.356
"1919662669",2205,playground,melati,-0.859,100.345
"1921374142",2301,restaurant,Char kway tiao,3.583,98.690
"1921374159",2511,convenience,,3.584,98.691
"1921375562",2601,bank,BCA,3.584,98.691
"1921375574",2602,atm,,3.584,98.691
"1921445119",2007,library,Taman Bacaan Masyarakat Tunas Harapan,-0.938,100.354
"1925503506",2405,hostel,Sibayak,2.676,98.851
"1925503509",2401,hotel,Leo's,2.677,98.852
"1925503510",2405,hostel,Bamboo,2.677,98.851
"1925503511",2405,hostel,Laster Jony's,2.675,98.852
"1925503512",2301,restaurant,Maruba,2.675,98.858
"1925503513",2301,restaurant,Marco Polo,2.676,98.857
"1925503514",2405,hostel,Rodeo,2.674,98.858
"1925503515",2405,hostel,Endy's,2.677,98.854
"1925503516",2405,hostel,Cotney,2.676,98.854
"1925503517",2401,hotel,Hotel Sumber Pulomas,2.673,98.860
"1925503518",2401,hotel,Pandu Lakeside,2.674,98.859
"1925503519",2405,hostel,Tony's,2.676,98.851
"1925529905",2004,post_box,,2.671,98.862
"1925529908",2515,bookshop,Pennys Book's,2.669,98.861
"1925529911",2301,restaurant,Juwita Cafe,2.668,98.859
"1925529916",2301,restaurant,Juwita Cafe,2.669,98.860
"1925529918",2511,convenience,Mafir Mini Market,2.668,98.859
"1925529931",2405,hostel,Elsina,2.668,98.859
"1925529934",2304,pub,Roy's Pub,2.669,98.859
"1925531451",2301,restaurant,Hot chilli,2.671,98.852
"1926803245",2301,restaurant,Rohanna's,2.669,98.861
"1926803246",2405,hostel,Theresya Appartment,2.669,98.852
"1926803247",2405,hostel,Toba Village Inn,2.669,98.853
"1926803248",2511,convenience,Citra Mart,2.669,98.853
"1926803249",2405,hostel,Ebikel,2.669,98.861
"1926804787",2401,hotel,Samosir Villas,2.668,98.860
"1926807147",2511,convenience,,2.671,98.861
"1926813176",2301,restaurant,Jenny's,2.677,98.853
"1927302484",2401,hotel,Jungle Tribe Guest House,3.550,98.117
"1927302489",2401,hotel,Sinar Accomodation,3.550,98.117
"1927302490",2401,hotel,Garden Inn,3.550,98.117
"1927302491",2401,hotel,Sam's Bungalows,3.550,98.117
"1928638224",2301,restaurant,Ida,3.550,98.123
"1928638232",2301,restaurant,Pinem Coffee Shop,3.550,98.121
"1928638232",2401,hotel,Pinem Coffee Shop,3.550,98.121
"1928638238",2016,market_place,,3.544,98.132
"1928638241",2301,restaurant,Rossa Caffe,3.551,98.124
"1928638242",2110,hospital,Health Center,3.544,98.133
"1928638245",2401,hotel,Farina 53,3.549,98.118
"1928638247",2401,hotel,Anugrah Sibaba,3.550,98.123
"1928638249",2401,hotel,Rain Forest,3.549,98.120
"1928638252",2401,hotel,Harmony Losmen,3.547,98.128
"1928638253",2401,hotel,Eden Inn,3.550,98.121
"1928638256",2301,restaurant,Inong,3.550,98.123
"1928680409",2401,hotel,Wisma Leuser,3.548,98.125
"1928680440",2401,hotel,Jungle Boundry,3.545,98.123
"1928680451",2401,hotel,On The Rock's Bungalows,3.548,98.121
"1928680505",2401,hotel,Junia Guest House,3.549,98.122
"1928680507",2401,hotel,Yusman,3.549,98.125
"1928680516",2305,bar,Rock Inn,3.543,98.126
"1928680527",2401,hotel,Mutiara,3.546,98.126
"1928680541",2401,hotel,Bukit Lawang Indah,3.549,98.122
"1928680550",2301,restaurant,Jhony's Caffe,3.545,98.128
"1928902476",2401,hotel,Back in touch,3.551,98.113
"1928908692",2701,tourist_info,National Park Visitors Center,3.549,98.126
"1928909991",2301,restaurant,Yusri,3.549,98.126
"1928955527",2303,cafe,Internet Access,3.548,98.126
"1928968841",2401,hotel,Back to Nature,3.554,98.106
"1933301551",2251,sports_centre,PKOR Way Halim,-5.379,105.278
"1934640865",2099,public_building,Kantor Wali Nagari Parambahan,-0.455,100.541
"1934645966",2082,school,SD N. 25 Silabuk Parambahan Kec. Lima Kaum,-0.458,100.546
"1934652008",2082,school,SD N. 27 DUSUN TUO Kec. Lima Kaum,-0.463,100.553
"1934654025",2099,public_building,Kantor Wali Nagari Lima Kaum,-0.463,100.565
"1934654028",2082,school,MAN 2 Batusangkar,-0.463,100.566
"1934654030",2082,school,SD N. 01 Balai Batu Kec. Lima Kaum,-0.464,100.564
"1934654033",2082,school,SMP N. 3 Batusangkar,-0.463,100.567
"1934657793",2001,police,DANRAMIL Lika kaum,-0.462,100.567
"1934657794",2099,public_building,Kantor Camat Lima Kaum,-0.462,100.566
"1934657795",2001,police,Kapolsek Lima kaum,-0.463,100.567
"1934657810",2002,fire_station,Posko DAMKAR Kab. Tanah Datar,-0.456,100.595
"1934657812",2084,college,STAIN Batusangkar,-0.461,100.573
"1934659800",2110,hospital,Puskesmas Lima Kaum,-0.462,100.567
"1934660064",2099,public_building,Kantor STAIN Batusangkar,-0.461,100.573
"1937480196",2082,school,SMP Negeri 9,-5.426,105.254
"1937522021",2016,market_place,Pasar Tamin,-5.411,105.247
"1943937664",2008,town_hall,Kantor Bupati Tanah Datar,-0.474,100.624
"1943940715",2723,monument,Tugu Manunggal,-0.464,100.553
"1945579892",2099,public_building,BPBD Kab. Tanah Datar,-0.456,100.595
"1945583826",2001,police,Kantor SATLANTAS,-0.456,100.595
"1945583827",2099,public_building,Kantor Satpol PP Kab. Tanah Datar,-0.456,100.595
"1945583828",2099,public_building,Kantor TELKOM,-0.456,100.595
"1966851051",2302,fast_food,Rumbai,0.585,101.405
"1966851058",2601,bank,Bank Mandiri,0.532,101.447
"1968247011",2016,market_place,Pasar Pagi Palapa,0.516,101.430
"1978959970",2099,public_building,Kantor Wali Nagari Tanjuang,-0.395,100.611
"1978960122",2016,market_place,Pasar Jum'at Tanjung Sungayang,-0.395,100.611
"1979149488",2301,restaurant,Warung Boler,1.130,104.047
"1979194825",2082,school,TPQ Al-Hidayah,1.121,104.089
"1982550010",2082,school,SMA N 2 Batusangkar,-0.480,100.628
"1982550012",2082,school,SMK N 1 Batusangkar,-0.480,100.630
"1982560505",2082,school,SD N. 10 Lingkung Kawe Tanjung Barulak,-0.491,100.676
"1982562599",2001,police,DANRAMIL Tanjung Emas,-0.487,100.664
"1982564391",2099,public_building,Kantor Wali Nagari Koto Tangah,-0.479,100.656
"1982568491",2001,police,Polsek Tanjung Emas,-0.487,100.657
"1982568492",2110,hospital,Puskesmas Tanjung Emas,-0.485,100.656
"1982568494",2082,school,SD N. 05 Koto Tangah,-0.479,100.656
"1982568495",2099,public_building,UPT. Dinas Pendidikan Kec. Tanjung Emas,-0.487,100.656
"1982571502",2099,public_building,Kantor Camat Tanjung Emas,-0.487,100.657
"1982571503",2099,public_building,Kantor KUA Kec. Tanjung Emas,-0.487,100.657
"1982571504",2005,post_office,Kantor Pos Cabang Tanjung Emas,-0.488,100.657
"1982571506",2099,public_building,Kantor Wali Nagari Saruaso,-0.486,100.635
"1982571509",2082,school,MTsN Tanjung Emas,-0.488,100.656
"1982571510",2082,school,SD N. 17 Saruaso,-0.485,100.638
"1982571511",2082,school,SD N. 6 Saruaso,-0.486,100.636
"1982590279",2099,public_building,"Dinas Perhubungan, Komunikasi dan Informasi Kab. Tanah Datar",-0.469,100.579
"1982590283",2082,school,SD N. 19 Piliang Lima Kaum,-0.470,100.582
"1982593038",2009,courthouse,Pengadilan Agama Batusangkar,-0.462,100.574
"1989177267",2401,hotel,Hotel Pagaruyung 2,-0.450,100.594
"1989177268",2401,hotel,Hotel Paharuyung 1,-0.452,100.593
"1989177456",2099,public_building,PT. PLN Cab. Batusangkar,-0.450,100.600
"1989177459",2110,hospital,RSUD Batusangkar,-0.451,100.600
"1989177462",2082,school,SD N. 34 Sungai Tarab,-0.447,100.593
"1989189944",2099,public_building,Dinas Peternakan,-0.453,100.596
"1989189945",2099,public_building,Kantor Wali Nagari Simpuruik,-0.446,100.585
"1989189983",2009,courthouse,Pengadilan Negeri Batusangkar,-0.454,100.596
"1989189988",2082,school,SD N. 09 Sungai Tarab Simpuruik,-0.446,100.586
"1989189991",2082,school,SD N. 26 Kampung Baru,-0.454,100.597
"1989189994",2082,school,SMA N. 1 Batusangkar,-0.453,100.596
"1989189997",2082,school,SMP N.1 Batusangkar,-0.453,100.595
"1989190000",2082,school,SMP N.2 Batusangkar,-0.453,100.596
"1990524213",2511,convenience,Commissary Chevron,0.578,101.441
"1990524271",2205,playground,Taman Bermain,0.586,101.472
"1990955007",2099,public_building,Kantor Wali Jorong Gurun,-0.444,100.556
"1990955008",2099,public_building,Kantor Wali Nagari Gurun,-0.445,100.558
"1990955009",2099,public_building,Kantor Wali Nagari Padang Laweh,-0.420,100.546
"1990955021",2110,hospital,Postu Gurun,-0.438,100.552
"1990955022",2082,school,SD N. 13 Sungai Tarab,-0.436,100.551
"1990955023",2082,school,SD N. 29 Sungai Tarab,-0.419,100.542
"1990955024",2082,school,SMP N. 4 Sungai Tarab,-0.446,100.557
"1990955670",2083,kindergarten,TK/ Padu IHSAN Padang Laweh,-0.419,100.543
"1990958999",2099,public_building,Kantor Wali Nagari Talang Tangah,-0.423,100.532
"1990959002",2110,hospital,Poskasri Talang Tangah,-0.426,100.536
"1990959003",2110,hospital,Poskesri Baringin,-0.451,100.572
"1990959004",2110,hospital,Poskesri Gurun,-0.446,100.560
"1990959005",2082,school,SD N. 05 Talang Tangah,-0.425,100.535
"1990959006",2082,school,SD N. 24 Baringin,-0.451,100.574
"1990959890",2101,pharmacy,,-0.454,100.582
"1990968053",2099,public_building,Kanto KAN Lima Kaum,-0.464,100.564
"1990980994",2081,university,AKPER,-0.464,100.576
"1990980995",2099,public_building,Gudang Farmasi,-0.465,100.577
"1990980996",2099,public_building,Kanto BPS Kab. Tanah Datar,-0.465,100.577
"1990980997",2099,public_building,Kanto Wali Jorong Koto Gadih,-0.459,100.558
"1990980998",2099,public_building,Kantor Wali Jorong Balai Batu,-0.459,100.563
"1990981161",2110,hospital,Poskesri Koto Gadih,-0.458,100.560
"1990981162",2082,school,SD N. 01 Sungai Tarab,-0.445,100.556
"1994678366",2301,restaurant,juice kedai,5.557,95.320
"2006058022",2301,restaurant,,5.571,95.358
"2024878842",2256,stadium,Hall A Rumbai,0.571,101.432
"2024878843",2256,stadium,Hall Senam Rumbai,0.571,101.433
"2024878845",2256,stadium,Stadion Atletik Rumbai,0.572,101.434
"2024878846",2256,stadium,Stadion Renang,0.574,101.432
"2027431747",2110,hospital,Klinik Enggal Waras,-4.112,104.653
"2050772731",2110,hospital,Rumah Sakit Lancang Kuning,0.513,101.465
"2050895673",2602,atm,,0.509,101.462
"2050895675",2015,graveyard,Makam Gobah,0.512,101.465
"2053789118",2601,bank,Bank Mandiri,0.521,101.447
"2068441902",2511,convenience,Klabing,-0.879,100.345
"2068441903",2518,beverages,,-0.879,100.345
"2071021434",2501,supermarket,ANATAMA,-0.304,100.369
"2079001180",2955,lighthouse,,4.124,96.128
"2086694419",2724,memorial,Monumen PT. Aneka Tambang,0.850,104.602
"2086695782",2082,school,Madrasah Ibtidaiyah Islamiyah Kijang,0.849,104.601
"2086695791",2082,school,MTSN Bintan Timur,0.848,104.601
"2086713215",2501,supermarket,Super Jess Swalayan,0.845,104.605
"2086720838",2421,shelter,,0.851,104.602
"2086847429",2016,market_place,Pasar Berdikari Kijang,0.840,104.601
"2086858748",2082,school,SMA Santa Maria,0.912,104.472
"2087856605",2602,atm,ATM Bank Nagari Psr. Bandar Buat,-0.949,100.435
"2087860221",2016,market_place,Pasar Bandar Buat,-0.949,100.436
"2088096808",2906,waste_basket,,-0.917,100.454
"2089500082",2082,school,SMA 9 Padang,-0.928,100.427
"2089502119",2001,police,Polsek Pauh,-0.930,100.426
"2089508012",2082,school,SD 02 Limau Manih,-0.930,100.459
"2089508089",2082,school,SMPN 23 Padang,-0.933,100.458
"2090601735",2950,tower,,-0.950,100.453
"2090602883",2564,car_wash,,-0.947,100.451
"2090616809",2511,convenience,Kurnia Mart,-0.948,100.451
"2093161326",2110,hospital,puskesmas maninjau,-0.319,100.240
"2094931535",2401,hotel,Hotel Hartono,-5.432,105.271
"2096015184",2406,chalet,Joel's Bungalows,5.499,95.229
"2096062291",2082,school,SD 01 Bandar Buat,-0.949,100.452
"2102030172",2725,artwork,Tugu Kol,3.189,98.509
"2102030173",2404,guesthouse,Sibayak Multinational Guesthouse,3.209,98.503
"2102322819",2501,supermarket,Indomaret,-4.592,105.105
"2103505238",2951,comms_tower,,2.653,98.859
"2103505243",2602,atm,Mandiri,2.667,98.944
"2106545554",2561,hairdresser,Barber Shop,1.251,101.202
"2111634861",2002,fire_station,Rumbai Camp Fire Department,0.580,101.441
"2113348522",2082,school,SD Cendana,0.582,101.439
"2113348560",2203,cinema,Rumbai Movie Theatre,0.575,101.440
"2122545469",2110,hospital,Chevron Medical Clinic,0.577,101.439
"2123443800",2205,playground,,0.601,101.425
"2123443811",2082,school,SMP Cendana,0.593,101.434
"2123443833",2012,community_centre,Rumbai Country Club,0.585,101.441
"2123443833",2253,swimming_pool,Rumbai Country Club,0.585,101.441
"2123443841",2082,school,Chevron International School Rumbai,0.592,101.440
"2123443924",2205,playground,,0.596,101.430
"2124801254",2401,hotel,hotel mahkota,-2.081,101.407
"2127002668",2205,playground,,0.595,101.442
"2130653988",2741,picnic_site,Agropuro Multifarm & Outbound Adventure,0.583,101.419
"2148623057",2016,market_place,,0.457,101.412
"2148623058",2082,school,An Namiroh Center Elementary School,0.458,101.409
"2148946159",2008,town_hall,Kantor Walikota Binjai,3.603,98.483
"2149009105",2083,kindergarten,TK Putih Melati I,1.250,101.220
"2149011095",2601,bank,Bank Central Asia KCP Binjai,3.609,98.491
"2149013365",2723,monument,Tugu Perjuangan 45,3.610,98.495
"2149118067",2082,school,Perguruan SD/SMP/SMU Methodist Binjai,3.606,98.488
"2149173494",2110,hospital,Rumah Sakit Umum Djulham,3.602,98.483
"2149181471",2904,fountain,Taman PKK,3.602,98.481
"2149323755",2601,bank,Bank Rakyat Indonesia Cabang Binjai,3.610,98.491
"2149449638",2008,town_hall,Kantor Camat Binjai Barat,3.608,98.474
"2160525750",2401,hotel,Hotel Basko,-0.902,100.351
"2160659234",2601,bank,Bank BRI Capem UNP,-0.898,100.350
"2162342982",2950,tower,,4.406,98.168
"2162342986",2564,car_wash,gohnanan,4.407,98.170
"2170588597",2602,atm,,3.542,98.717
"2170588611",2511,convenience,,3.541,98.717
"2170629670",2601,bank,BRI,3.536,98.716
"2170924262",2301,restaurant,Rehandy Coffe Shop,2.681,98.837
"2170944308",2601,bank,BRI,2.679,98.832
"2170992781",2301,restaurant,Vegan Cafe,2.706,98.810
"2170996186",2404,guesthouse,Vanesha Inn Resort,2.708,98.811
"2171164797",2301,restaurant,,2.674,98.859
"2171210935",2301,restaurant,Bagus Coffee Shop,2.661,98.931
"2171210936",2301,restaurant,,2.661,98.931
"2171210937",2301,restaurant,,2.661,98.931
"2171210938",2301,restaurant,,2.661,98.931
"2171245444",2601,bank,Sumut,2.664,98.931
"2171305277",2601,bank,BRI,2.667,98.940
"2171323775",2303,cafe,,2.666,98.936
"2171641521",2602,atm,,1.683,101.458
"2171709921",2301,restaurant,Pak Datuk,1.681,101.448
"2171713345",2401,hotel,Comfort Hotel,1.682,101.447
"2177364691",2083,kindergarten,TK Aisyiah,1.480,102.111
"2177371019",2001,police,Satlantas Bengkalis,1.476,102.121
"2177939106",2083,kindergarten,TK Cendana,0.580,101.435
"2177939140",2082,school,SMA Cendana,0.587,101.430
"2177940197",2205,playground,,0.590,101.431
"2180835378",2008,town_hall,Balai Desa Pisang Indah,-4.320,104.457
"2184876159",2501,supermarket,Robinson Supermarket,-0.950,100.356
"2184877716",2602,atm,BNI siteba,-0.896,100.364
"2184878028",2602,atm,,-0.950,100.355
"2184878753",2602,atm,,-0.896,100.364
"2184953104",2950,tower,,-1.102,100.782
"2184964775",2082,school,sd negeri 25 air dingin,-1.122,100.784
"2184964776",2082,school,smp negeri 3 air dingin,-1.122,100.784
"2184973309",2016,market_place,pasar lekok jirek,-1.128,100.782
"2184973799",2082,school,SD negeri 03 air dingin,-1.129,100.782
"2189408345",2301,restaurant,sate mak syukur,-0.465,100.381
"2189438004",2005,post_office,,-0.951,100.363
"2190554963",2110,hospital,RSUD solok,-0.795,100.677
"2190828845",2001,police,kantor polisi bim,-0.783,100.292
"2191920272",2084,college,Gedung Kuliah FIK UNP,-0.898,100.347
"2191957262",2401,hotel,,-0.956,100.359
"2191963003",2082,school,SMP N 2 Gunung Talang,-0.868,100.650
"2192032048",2082,school,SMA Pertiwi 1,-0.893,100.351
"2192791621",2301,restaurant,houstea,-0.956,100.363
"2192806600",2303,cafe,es durian ganti nan lamo,-0.959,100.361
"2193744921",2253,swimming_pool,sari manggis,-0.928,100.638
"2207643879",2016,market_place,pasar lama,-0.324,100.058
"2211577027",2301,restaurant,Pondok Makan Da Enk,-0.221,100.635
"2213065502",2016,market_place,PASAR SIJUNJUNG,-0.702,100.979
"2219169184",2401,hotel,Rocky Plaza Hotel,-0.947,100.359
"2222344936",2721,attraction,PLTD Apung,5.546,95.307
"2222344937",2721,attraction,Monumen Seulawah,5.549,95.313
"2222344938",2721,attraction,Tsunami Monument,5.550,95.313
"2222403781",2511,convenience,Indomaret,5.550,95.309
"2233238231",2501,supermarket,ABC,3.568,98.643
"2234266329",2601,bank,BANK BRI,-0.897,100.366
"2234325722",2082,school,,-0.896,100.366
"2237453608",2401,hotel,Pavilliun Seulawah,5.552,95.313
"2258250358",2511,convenience,,0.458,101.411
"2267880150",2401,hotel,Loola Adventure Resort,0.942,104.659
"2270375166",2301,restaurant,Rumah Makan Goreng Baluik,-0.263,100.612
"2278619699",2602,atm,,-2.065,101.395
"2293044575",2733,archaeological,Pasai Historical Stones,5.147,97.225
"2293049243",2733,archaeological,Samudra Historical Stones,5.147,97.221
"2293049244",2742,viewpoint,Kuala Pasai,5.152,97.226
"2313138533",2082,school,SMA Negeri 1 Tanjung Raya,-0.299,100.225
"2314514725",2564,car_wash,Kilat Doorsmeer,3.602,98.669
"2316658929",2501,supermarket,Melati,-0.973,100.378
"2316658942",2082,school,smp pgri 4,-0.963,100.382
"2316663585",2082,school,SMP SIMA,-0.973,100.379
"2316664264",2082,school,SD 17 MATA AIR,-0.974,100.379
"2316690946",2082,school,SDN 35,-0.971,100.380
"2316691753",2082,school,SMP YULIN,-0.976,100.380
"2316705155",2082,school,sma 6,-0.977,100.376
"2316709304",2501,supermarket,nuansa indah,-0.975,100.379
"2316713416",2501,supermarket,niken,-0.976,100.379
"2316715161",2501,supermarket,Z end Z,-0.976,100.379
"2316717489",2082,school,TK AISYIYAH,-0.973,100.379
"2316733325",2401,hotel,hotel beugenvil,-0.954,100.364
"2316739700",2401,hotel,hotel aliga,-0.954,100.364
"2318063340",2082,school,Smpn 35,-0.964,100.379
"2319414199",2110,hospital,RSUD Panyabungan,0.864,99.565
"2319418705",2016,market_place,Madina Square,0.863,99.563
"2323944508",2301,restaurant,Randang Rajo,-0.984,100.382
"2323974355",2401,hotel,Grand Aston City Hall,3.590,98.677
"2323974357",2401,hotel,Dharma Deli,3.591,98.677
"2323985962",2301,restaurant,Jumbo Seafood,3.595,98.676
"2323985965",2084,college,STBA - PIA,3.614,98.670
"2323990241",2601,bank,Bank Mega,3.588,98.688
"2323990242",2504,mall,Olympia Plaza,3.588,98.688
"2324003746",2401,hotel,Hermes,3.582,98.682
"2324130129",2301,restaurant,Cha Sio Asan,3.582,98.691
"2324130155",2601,bank,Bank Mega Setia Budi,3.563,98.639
"2325416314",2302,fast_food,KFC Sutomo,3.598,98.681
"2325416329",2082,school,SMA Unggulan Chairul Tanjung Foundation,3.654,98.656
"2325416338",2081,university,Universitas Dharma Agung. Herna,3.579,98.665
"2325416339",2501,supermarket,Vigo,3.574,98.663
"2351237303",2402,motel,Sayna Hotel,3.383,98.598
"2351809386",2404,guesthouse,Wisma Sibayak Guesthouse,3.188,98.509
"2351835411",2404,guesthouse,Sibayak Losmen Guesthouse,3.193,98.509
"2356896424",2404,guesthouse,Bagus Bay Homestay,2.670,98.855
"2371944968",2001,police,,3.521,98.635
"2372126846",2302,fast_food,CFC,3.526,98.633
"2372188075",2950,tower,,4.627,96.846
"2372652705",2950,tower,,4.744,96.777
"2372885096",2951,comms_tower,,4.712,96.816
"2373893901",2401,hotel,Sip Irok Nauli Hotel,1.382,99.275
"2373893904",2401,hotel,Madina Sejahtera Hotel,0.811,99.570
"2373893905",2401,hotel,Redina Hotel,0.815,99.568
"2373893906",2401,hotel,Hotel,0.358,100.061
"2374446554",2602,atm,,3.532,98.644
"2374475769",2501,supermarket,,3.548,98.658
"2374475794",2302,fast_food,A&W,3.548,98.659
"2375708364",2511,convenience,Alfamart,3.515,98.627
"2375708366",2511,convenience,Indomaret,3.511,98.627
"2375708368",2511,convenience,Indomaret,3.516,98.627
"2375708370",2083,kindergarten,TK. Harapan Bunda,3.515,98.627
"2382924104",2001,police,Polsek Curup,-3.457,102.581
"2389676659",2602,atm,BRI,-2.064,101.393
"2406931128",2602,atm,ATM Bank Aceh,2.392,97.963
"2406931329",2401,hotel,Indah Sari,2.392,97.963
"2406931457",2602,atm,ATM BRI,2.392,97.963
"2406931602",2601,bank,BRI,2.392,97.963
"2406931674",2601,bank,Bank Aceh,2.392,97.963
"2406931678",2602,atm,ATM BRI,2.271,97.814
"2406931680",2301,restaurant,rumah makan,2.272,97.809
"2406931763",2405,hostel,Sri Alami,2.270,97.812
"2406931764",2405,hostel,Penginapan Sonia,2.274,97.805
"2406931765",2405,hostel,Penginapan Putri Pohan,2.271,97.812
"2406931837",2405,hostel,Penginapan Binanga,2.392,97.963
"2406931902",2405,hostel,Lae Kombih homestay,2.301,97.411
"2406932101",2602,atm,ATM Bank Aceh,2.270,97.817
"2406932205",2601,bank,Bank Aceh,2.270,97.817
"2406932269",2567,travel_agent,Cv. Sabena Travel,1.731,98.791
"2406932453",2301,restaurant,rumah makan,1.418,99.207
"2406932559",2301,restaurant,Rumah Makan Roda Baru,0.030,100.221
"2406932645",2301,restaurant,Rumah Makan Puti Minang,-0.271,100.366
"2408621272",2405,hostel,Johannes cottages,2.292,97.314
"2408621273",2301,restaurant,Restoran Obay,-0.337,100.383
"2408621292",2602,atm,ATM Bank Nagari,-0.339,100.383
"2408621298",2121,dentist,Dokter gigi Arnetty,-0.339,100.383
"2408621299",2602,atm,BNI ATM,-0.346,100.384
"2408621300",2404,guesthouse,Maransy Beach,-0.284,100.224
"2410482761",2901,toilet,Rest Area & Mushalla,-5.795,105.718
"2411476521",2951,comms_tower,,0.730,97.891
"2411476754",2951,comms_tower,Telkomsel,0.757,97.875
"2411476958",2082,school,SD Negeri 071204 Lahusa,0.771,97.850
"2423856847",2001,police,,4.727,96.820
"2424003645",2742,viewpoint,,2.680,98.928
"2424934237",2951,comms_tower,,2.796,98.496
"2425703361",2082,school,SD N 139 Palembang,-2.928,104.703
"2425703362",2082,school,SMP N 54 palembang,-2.927,104.702
"2426255935",2742,viewpoint,,2.834,98.761
"2426456100",2002,fire_station,,-2.928,104.706
"2431409665",2204,park,Taman Kota Bagansiapiapi,2.162,100.808
"2431409668",2724,memorial,Taman Makam Pahlawan,2.161,100.803
"2431409671",2082,school,Perguruan Wahidin,2.160,100.810
"2431409672",2082,school,SMPN 1 Bagansiapiapi,2.163,100.805
"2431415973",2082,school,Perguruan Methodish,2.161,100.799
"2431415976",2110,hospital,RSU Dr. Protomo Bagansiapiapi,2.158,100.809
"2431428702",2082,school,SMPN 2 Bangko,2.144,100.807
"2431455826",2001,police,Kantor Polisi,2.158,100.808
"2431473624",2016,market_place,Pasar Datuk Rubiah,2.163,100.810
"2431476245",2016,market_place,Pasar Pelita Bagansiapiapi,2.160,100.806
"2431495170",2303,cafe,PUJASERA (Pusat Jajanan Selera Rakyat),2.163,100.800
"2434710825",2567,travel_agent,Hello Guest House,-0.303,100.368
"2434710825",2404,guesthouse,Hello Guest House,-0.303,100.368
"2434710826",2401,hotel,Khartini Hotel,-0.303,100.368
"2434710827",2401,hotel,Grand Kartini Hotel,-0.303,100.368
"2434712296",2303,cafe,Bedudal,-0.301,100.368
"2436104698",2601,bank,Bank Mega,-3.792,102.258
"2436104698",2401,hotel,Bank Mega,-3.792,102.258
"2440722380",2723,monument,Monumen Thomas Parr,-3.789,102.251
"2440722936",2953,observation_tower,Tugu Tsunami,-3.790,102.251
"2440786950",2001,police,Polisi Lalu Lintas,-3.797,102.265
"2440808228",2007,library,Perpustakaan Daerah,-3.796,102.271
"2441129247",2101,pharmacy,Apotek Nita,-3.801,102.273
"2441136330",2951,comms_tower,Pemancar Telkom,-3.796,102.266
"2441136331",2951,comms_tower,Pemancar TVRI,-3.793,102.271
"2441473384",2016,market_place,Tempat Pelelangan Ikan,-3.786,102.254
"2441473400",2721,attraction,Tapak Paderi,-3.785,102.253
"2441473402",2721,attraction,Pantai Jakat,-3.782,102.261
"2441496518",2301,restaurant,Pondok Salero,-3.793,102.254
"2441514845",2008,town_hall,Gedung Daerah,-3.791,102.252
"2441519926",2401,hotel,Hotel Rio Asri,-3.791,102.253
"2441531904",2301,restaurant,Restoran Semalam Suntuk,-3.792,102.263
"2441533096",2401,hotel,Hotel Splash,-3.792,102.261
"2441542074",2401,hotel,Hotel Samudra Dwinka,-3.793,102.262
"2441548364",2302,fast_food,KFC,-3.793,102.263
"2441638727",2301,restaurant,Sinar Padang,-3.800,102.272
"2441638729",2303,cafe,Buffet Betty,-3.799,102.269
"2441638730",2303,cafe,Buffet Tris,-3.798,102.269
"2442094008",2301,restaurant,Saimen,-3.797,102.265
"2442226309",2101,pharmacy,Apotek Keluarga,-3.794,102.275
"2442226386",2301,restaurant,Restoran Bumbu Desa,-3.799,102.272
"2442521012",2303,cafe,Pangsit Tris,-3.807,102.263
"2442969584",2501,supermarket,Giant Supermarket,-3.794,102.267
"2443178810",2501,supermarket,Mini Market 88,-3.793,102.263
"2443178819",2501,supermarket,Hypermart,-3.811,102.268
"2443285457",2501,supermarket,Toko Bima 2000,-3.799,102.273
"2444230457",2084,college,Politeknik Kesehatan,-3.816,102.283
"2444230461",2082,school,SMA Negeri 1,-3.823,102.280
"2444331252",2301,restaurant,Marola,-3.799,102.254
"2444331253",2082,school,SMP Sint Carolus,-3.793,102.250
"2444331256",2082,school,SMP Negeri 9,-3.792,102.253
"2444331257",2082,school,SD Negeri 11,-3.790,102.249
"2444331258",2082,school,SD Negeri 1,-3.790,102.250
"2444331259",2082,school,SMP Negeri 3,-3.790,102.261
"2444331260",2082,school,SMP Negeri 1,-3.792,102.261
"2444331261",2303,cafe,Warung Kopi Palembang,-3.792,102.259
"2444455399",2084,college,Akademi Perawat,-3.817,102.284
"2444522715",2082,school,TK Auladunna,-3.798,102.278
"2444553162",2082,school,SMP Negeri 7,-3.781,102.263
"2444553166",2082,school,SD Negeri 57,-3.778,102.264
"2444659981",2082,school,SD Negeri 32,-3.810,102.277
"2444659983",2082,school,SD Negeri 38,-3.818,102.278
"2444659986",2401,hotel,Hotel Raffles City,-3.815,102.271
"2444659988",2252,pitch,Sport Center,-3.808,102.264
"2444660009",2303,cafe,Waroeng Kupi Rumoh Atjeh,-3.793,102.261
"2444671453",2082,school,SMPIT Iqra,-3.789,102.264
"2444671454",2082,school,SD Negeri 50,-3.789,102.275
"2445263184",2082,school,SDIT Iqra 1,-3.797,102.277
"2445266458",2008,town_hall,Kejaksaan Negeri,-3.800,102.259
"2445306780",2008,town_hall,Dinas Pendidikan Nasional Provinsi,-3.798,102.268
"2445306782",2009,courthouse,Pengadilan Agama,-3.796,102.266
"2445306792",2008,town_hall,Kejaksaan Tinggi,-3.797,102.267
"2445306825",2602,atm,ATM SYARIAH MANDIRI,-3.800,102.270
"2445306826",2602,atm,ATM Muamalat,-3.800,102.270
"2445306832",2527,newsagent,Bengkulu Ekspress,-3.800,102.273
"2445363754",2082,school,SD Negeri 68,-3.771,102.271
"2445363755",2082,school,SD Negeri 3,-3.786,102.266
"2445363771",2082,school,SD Negeri 47,-3.794,102.251
"2445386188",2082,school,SD Negeri 54,-3.801,102.279
"2445386189",2082,school,SD Negeri 43,-3.806,102.285
"2445386190",2082,school,SD Negeri 58,-3.810,102.278
"2445386191",2082,school,SD Negeri 44,-3.824,102.285
"2445386192",2082,school,SMP Negeri 12,-3.821,102.279
"2445386193",2082,school,SMP Negeri 13,-3.798,102.260
"2445386194",2082,school,SMA Pembangunan,-3.796,102.260
"2445454345",2722,museum,Musium Provinsi Bengkulu,-3.816,102.287
"2445454362",2008,town_hall,KPP Pratama,-3.815,102.288
"2445454363",2084,college,Akademi Farmasi Al Fatah,-3.815,102.282
"2445454385",2082,school,SD Negeri 51,-3.801,102.279
"2445454386",2405,hostel,Hotel Wisata,-3.802,102.276
"2447222651",2741,picnic_site,Pemandian Alam Babar Sari,3.439,98.551
"2447759513",2505,department_store,Matahari,-3.811,102.269
"2447762190",2741,picnic_site,"Pemandian Pantai Salju, Desa Mabar",3.435,98.856
"2447763777",2741,picnic_site,Pemandian Alam Sibolangit Indah,3.215,98.507
"2447766006",2741,picnic_site,Pemandian Alam Sembahe,3.341,98.584
"2447777763",2741,picnic_site,Air Terjun Sempuran Putih,3.684,98.766
"2447847294",2741,picnic_site,Danau Linting,3.245,98.709
"2447906393",2008,town_hall,Dinas Pendidikan Nasional Kota,-3.796,102.270
"2449165547",2302,fast_food,CFC,-3.797,102.265
"2449165550",2404,guesthouse,Keiko,-3.793,102.254
"2453017706",2303,cafe,Sari Wangi,-3.793,102.263
"2453017714",2515,bookshop,Gramedia,-3.794,102.267
"2453022746",2302,fast_food,KFC,-3.812,102.268
"2453022747",2302,fast_food,Es Teler 77,-3.812,102.268
"2460192491",2303,cafe,,5.571,95.369
"2461173336",2303,cafe,,5.574,95.367
"2478658588",2601,bank,BRI,-4.587,105.105
"2478658916",2602,atm,BRI,-4.587,105.105
"2481922186",2511,convenience,Indomaret,-4.568,105.148
"2481922187",2602,atm,BRI,-4.569,105.148
"2481922188",2001,police,Pos Lantas Kali Miring,-4.631,105.134
"2488958889",2082,school,SD N 144450 Pidoli,0.841,99.562
"2488969875",2082,school,SMA N 1 Panyabungan,0.864,99.565
"2494588212",2016,market_place,Pasar Pulung Kencana,-4.591,105.104
"2494921790",2110,hospital,Asy-Syifa,-4.631,105.086
"2496147489",2601,bank,BRI Syariah,-4.634,105.078
"2496147711",2601,bank,Bank Lampung,-4.634,105.078
"2496147725",2602,atm,BRI Syariah,-4.634,105.078
"2496153009",2511,convenience,Indomaret,-4.635,105.078
"2496153084",2511,convenience,Alfamart,-4.635,105.079
"2496891285",2521,gift_shop,Keripik Pisang Dwi Putra,-4.622,105.099
"2496891315",2503,kiosk,Pasar Kagungan Ratu,-4.565,105.071
"2501374327",2301,restaurant,Roland's German Restaurant,3.564,98.639
"2502365627",2120,doctors,Dr Edi,-4.625,105.095
"2502380027",2303,cafe,Tasbi Coffee Club,3.568,98.637
"2506733934",2511,convenience,Indomaret Tirta Kencana,-4.547,105.129
"2506733935",2001,police,Polsek Tulangbawang Tengah,-4.550,105.097
"2506826246",2511,convenience,Indomaret,-4.623,105.107
"2506826247",2110,hospital,RS PKU Muhammadiyah,-4.622,105.107
"2506833371",2511,convenience,Indomaret,-4.522,105.089
"2506833372",2511,convenience,Alfamart,-4.522,105.089
"2506833377",2016,market_place,Pasar Panaragan,-4.521,105.090
"2506856620",2601,bank,Bank Mandiri Daya Asri,-4.632,105.086
"2512584422",2099,public_building,Badan Perencanaan Pembangunan Daerah (BAPPEDA),3.739,96.852
"2514082580",2303,cafe,kantin pkk abdya,3.740,96.852
"2514086985",2099,public_building,Dewan Perwakilan Rakyat Kabupaten (DPRK),3.740,96.851
"2514086986",2008,town_hall,Kantor BUPATI,3.739,96.851
"2514087695",2099,public_building,DPK3,3.739,96.852
"2515090538",2099,public_building,Kantor PP KS,3.740,96.852
"2515109076",2723,monument,Tugu cot mane,3.763,96.823
"2515162811",2099,public_building,Dinas Perindustrian Perdagangan Koperasi Usaha Menengah Kecil dan Mikro,3.741,96.801
"2515879538",2252,pitch,Lapangan Sepak Bola Persada,3.737,96.831
"2515891961",2724,memorial,TUGU BPD BLANGPIDIE,3.738,96.834
"2515953909",2082,school,SDN 2 Ie Mirah,3.934,96.673
"2515955534",2082,school,SMP Negeri 2 Babahrot,3.933,96.677
"2515962700",2404,guesthouse,Khana Pakat (Quest House),3.740,96.841
"2516011943",2082,school,SDN 4 Pante Rakyat,3.922,96.675
"2516121186",2082,school,SD Negei Cot Mane,3.762,96.822
"2517059041",2082,school,SDN 1 Alue Sungai Pinang,3.777,96.814
"2519938830",2012,community_centre,ACEH BARAT DAYA ISLAMIC CENTER,3.747,96.834
"2521792885",2008,town_hall,Dinas Pendidikan Kebudayaan dan Pariwisata Kabupaten Aceh Barat Daya,3.743,96.826
"2521838048",2082,school,MIN Alue Padee,3.800,96.778
"2521838057",2082,school,SDN 1 Krueng Batee,3.792,96.789
"2521838064",2082,school,SMPS 1 Krueng Batee,3.791,96.789
"2521838065",2110,hospital,UGD Kuala Batee,3.819,96.763
"2524920882",2082,school,SMA Negeri 1 Jeumpa,3.761,96.822
"2539286803",2951,comms_tower,,2.627,98.468
"2539309707",2951,comms_tower,,2.105,98.948
"2539530543",2082,school,SDN LADANG NEUBOK,3.755,96.827
"2539956132",2501,supermarket,Ramayana,-2.983,104.751
"2554184708",2602,atm,,3.116,99.120
"2558359950",2301,restaurant,Small Eating Place,0.989,103.436
"2562532841",2082,school,SDN Ie Mameh,3.761,96.780
"2580335707",2301,restaurant,Kedai,0.601,101.490
"2601036608",2601,bank,Bank BRI,1.108,103.953
"2601068284",2302,fast_food,A&W,1.146,104.012
"2601068287",2543,doityourself,Ace Hardware,1.146,104.013
"2601068289",2302,fast_food,KFC,1.146,104.012
"2601068291",2505,department_store,Matahari,1.146,104.013
"2611105216",2405,hostel,,2.278,97.231
"2611148937",2082,school,SDN 1 Pulau Banyak,2.299,97.409
"2611148938",2005,post_office,,2.299,97.409
"2611148948",2950,tower,,2.300,97.409
"2611148967",2082,school,SDN 2 Pulau Banyak,2.304,97.409
"2613700810",2602,atm,,1.230,97.651
"2625116542",2404,guesthouse,Pondok Mangga,1.136,104.043
"2625118410",2401,hotel,Backpacker Hotel,1.135,104.043
"2625141706",2601,bank,Bank Syariah Indonesia,1.144,104.018
"2625167453",2305,bar,Princess Massage,1.141,104.005
"2625717724",2951,comms_tower,,3.161,98.329
"2625718281",2951,comms_tower,,3.179,98.424
"2631588529",2602,atm,,1.247,97.641
"2641916219",2306,food_court,pagaruyung food street,3.584,98.670
"2647455040",2082,school,SMA Negeri 1 Rambatan,-0.503,100.558
"2647682955",2742,viewpoint,Menara Tele,2.552,98.640
"2649365492",2950,tower,,3.103,98.330
"2649514401",2015,graveyard,MAKAM,-4.482,105.236
"2651592372",2950,tower,,3.091,98.369
"2651592403",2950,tower,,3.091,98.367
"2668835662",2120,doctors,Dr. Saroso R,-5.114,105.316
"2670531843",2950,tower,,3.100,98.334
"2670532118",2951,comms_tower,,3.100,98.334
"2672479614",2120,doctors,UGD 24 Jam,-4.604,105.081
"2673252118",2950,tower,,3.093,98.357
"2683222316",2303,cafe,,3.775,96.819
"2683222324",2303,cafe,,3.775,96.819
"2683243518",2525,mobile_phone_shop,Counter Handphone,3.775,96.819
"2683323697",2503,kiosk,,3.776,96.819
"2683336299",2503,kiosk,,3.776,96.819
"2725907606",2401,hotel,Hotel Semarak,3.567,98.692
"2725907609",2110,hospital,Puskesmas,3.563,98.693
"2725909551",2082,school,SMAN 5 Medan,3.565,98.699
"2725909552",2082,school,SMAN 5 Medan,3.565,98.698
"2725910280",2082,school,SMPN 3 Medan,3.565,98.700
"2725913942",2082,school,Stt Harapan,3.568,98.695
"2726460314",2082,school,SMP N 20 Padang,-0.973,100.379
"2727549439",2723,monument,Tugu Pejuang Nasional Aman Dimot,4.622,96.846
"2727549440",2723,monument,kampung Halaman Pejuang Alfala,4.625,96.847
"2727549473",2723,monument,Kelahiran Alfala,4.726,96.796
"2727566359",2253,swimming_pool,Pemandian Air Panas Simpang Balik,4.728,96.798
"2727596715",2252,pitch,Persiba FC,4.728,96.781
"2727641830",2501,supermarket,Pasar Inpres,4.731,96.794
"2727641832",2305,bar,Cek Da,4.732,96.794
"2733171597",2503,kiosk,,3.776,96.820
"2771669177",2951,comms_tower,,-5.708,105.789
"2775852048",2001,police,POLSEK,-1.314,102.104
"2776037590",2601,bank,Bank BNI,-1.309,102.107
"2776037591",2601,bank,Bank Mandiri,-1.309,102.108
"2776037592",2110,hospital,Gandi MEDIKA,-1.312,102.106
"2776592425",2516,butcher,Pasar Ikan / Daging,-1.309,102.104
"2776927990",2110,hospital,KLINIK SETIA BUDI,-1.309,102.107
"2776944521",2301,restaurant,SATE WULAN,-1.315,102.103
"2776950696",2006,telephone,TELKOM,-1.312,102.106
"2776950703",2005,post_office,PT. POS,-1.311,102.106
"2776950705",2501,supermarket,Q-MART,-1.313,102.104
"2777036825",2305,bar,WILTOP HOTEL,-1.486,102.114
"2777385252",2601,bank,BRI,-1.311,102.106
"2777389151",2401,hotel,HOTEL Linda,-1.314,102.108
"2777406634",2512,clothes,,-1.310,102.104
"2777406635",2512,clothes,,-1.310,102.105
"2777406636",2512,clothes,,-1.310,102.105
"2777406637",2526,toy_shop,,-1.310,102.105
"2777406638",2252,pitch,FUTSAL,-1.316,102.103
"2777406639",2564,car_wash,Cucian Faris,-1.316,102.104
"2777502924",2546,computer_shop,ANNIS COMP (RAHMA ),-1.309,102.107
"2780798968",2303,cafe,,-1.313,102.105
"2790075785",2011,embassy,Konsulat Jenderal Jepang di Medan,3.583,98.672
"2792076872",2950,tower,pemancar telkomsel,3.607,96.930
"2800232334",2564,car_wash,Cucian Mobil,-1.311,102.107
"2800479429",2951,comms_tower,telkomsel,-1.309,102.107
"2801371914",2303,cafe,,5.541,95.320
"2802580619",2421,shelter,MCK,-1.311,102.104
"2802607230",2301,restaurant,Pecel Lele KUMIS,-1.315,102.102
"2803874148",2301,restaurant,Wong Solo,5.544,95.317
"2803921142",2301,restaurant,Bakso Solo,5.544,95.317
"2805294980",2546,computer_shop,To mart,-1.309,102.108
"2805308474",2001,police,POLSEK Tanah Sepenggal,-1.399,102.038
"2805533084",2303,cafe,rumah edi,-1.340,102.040
"2813167160",2401,hotel,Brastagi Cottage,3.197,98.503
"2813167161",2301,restaurant,Cafe Raymond,3.195,98.510
"2813167162",2501,supermarket,Indomaret,3.177,98.510
"2813169286",2951,comms_tower,,2.678,98.834
"2813169289",2301,restaurant,,2.682,98.927
"2813169290",2301,restaurant,,2.683,98.926
"2813169291",2301,restaurant,,2.683,98.926
"2813169292",2301,restaurant,,2.684,98.926
"2813169293",2301,restaurant,,2.684,98.926
"2813169294",2301,restaurant,,2.684,98.926
"2813169295",2301,restaurant,,2.685,98.926
"2813169296",2301,restaurant,,2.685,98.926
"2813169297",2301,restaurant,,2.685,98.926
"2813170026",2951,comms_tower,,2.593,98.878
"2813170409",2951,comms_tower,,2.736,98.338
"2813170410",2951,comms_tower,,2.743,98.402
"2813170411",2951,comms_tower,,2.743,98.401
"2813170412",2951,comms_tower,,2.743,98.403
"2813170418",2951,comms_tower,,2.762,98.468
"2813170419",2951,comms_tower,,2.762,98.473
"2813170420",2951,comms_tower,,2.762,98.474
"2813170443",2951,comms_tower,,2.795,98.497
"2813170444",2951,comms_tower,,2.796,98.499
"2813170445",2951,comms_tower,,2.798,98.500
"2813170446",2951,comms_tower,,2.798,98.500
"2813170447",2951,comms_tower,,2.799,98.500
"2813170449",2301,restaurant,,2.898,98.495
"2813170938",2302,fast_food,,3.150,98.445
"2813171164",2303,cafe,,3.193,98.501
"2813171171",2301,restaurant,,3.193,98.501
"2813171172",2101,pharmacy,,3.193,98.509
"2813171179",2602,atm,,3.194,98.509
"2813171182",2602,atm,,3.195,98.509
"2813171332",2602,atm,,3.200,98.505
"2813171334",2401,hotel,,3.200,98.505
"2813211090",2082,school,SMA 5,-1.303,102.032
"2815040801",2099,public_building,Balai Musyawarah,3.903,96.677
"2815128169",2110,hospital,PUSTU RUKUN DAMEE,3.912,96.674
"2815195581",2951,comms_tower,,2.654,98.859
"2815195599",2951,comms_tower,,2.820,98.834
"2815197870",2951,comms_tower,,2.910,98.970
"2815199056",2951,comms_tower,,2.882,98.865
"2815199128",2951,comms_tower,,2.905,98.915
"2815199181",2951,comms_tower,,2.910,98.970
"2815257014",2082,school,SDN 3 Pantee Rakyat,3.917,96.682
"2817247147",2401,hotel,Pardede Hotel,3.572,98.672
"2817247714",2951,comms_tower,,3.615,98.670
"2817247715",2951,comms_tower,,3.615,98.670
"2817247957",2951,comms_tower,,3.722,98.672
"2817247960",2951,comms_tower,,3.722,98.671
"2817247973",2951,comms_tower,,3.736,98.673
"2817343319",2951,comms_tower,,3.711,98.673
"2820420635",2951,comms_tower,,3.462,98.687
"2822810470",2251,sports_centre,,3.914,96.690
"2823823092",2721,attraction,Bat Cave,3.536,98.124
"2823825054",2301,restaurant,,3.541,98.126
"2823825094",2301,restaurant,,3.543,98.126
"2823825251",2301,restaurant,Wisma Leuser Sibayak,3.549,98.125
"2823825276",2301,restaurant,,3.550,98.125
"2823975460",2601,bank,BTPN,-1.310,102.108
"2823982238",2601,bank,BRI,-1.308,102.108
"2823985471",2110,hospital,BIDAN ROSLAINI,-1.311,102.110
"2823992276",2110,hospital,DR. RIANA,-1.298,102.024
"2824029514",2001,police,KORAMIL,-1.315,102.102
"2855099089",2001,police,polsek betung,-2.851,104.257
"2857762788",2110,hospital,Puskesmas Huraba,1.509,99.224
"2862107155",2001,police,Polsek Bayunglincir,-2.060,103.681
"2862548386",2082,school,,3.884,96.685
"2862548393",2111,clinic,,3.898,96.687
"2862548394",2252,pitch,,3.904,96.679
"2862548395",2421,shelter,,3.904,96.694
"2862548400",2082,school,,3.921,96.673
"2862548907",2950,tower,,3.942,96.675
"2862567094",2082,school,,3.844,96.748
"2862567902",2099,public_building,,3.846,96.744
"2862567905",2082,school,,3.848,96.741
"2862567908",2082,school,,3.887,96.710
"2862567909",2082,school,,3.891,96.708
"2870828585",2082,school,UPT SD Negeri 005 Petapahan Jaya,0.615,100.976
"2874513762",2082,school,,3.822,96.762
"2874513763",2082,school,,3.822,96.761
"2874513764",2731,castle,,3.822,96.762
"2874513765",2252,pitch,,3.823,96.760
"2874513770",2082,school,,3.827,96.758
"2875610834",2950,tower,alupisang,3.786,96.798
"2875610835",2950,tower,alupisang,3.789,96.794
"2877113478",2950,tower,batasan,3.745,96.783
"2877113479",2950,tower,batasan,3.757,96.778
"2877113480",2950,tower,keude baro,3.753,96.780
"2877121608",2111,clinic,Puskesdes,3.828,96.763
"2877182523",2251,sports_centre,LAPANGAN BOLA,3.748,96.783
"2877200271",2083,kindergarten,TK,3.753,96.780
"2877204504",2083,kindergarten,TPA,3.753,96.779
"2877293676",2252,pitch,,3.787,96.785
"2877299605",2252,pitch,LAPANGAN FUTSAL,3.749,96.777
"2877299689",2082,school,SMP 3,3.750,96.776
"2877411193",2083,kindergarten,,3.823,96.762
"2877414725",2082,school,TPA,3.819,96.752
"2877423524",2016,market_place,Pasar Sayur,3.821,96.761
"2877423525",2016,market_place,pasar Ikan,3.821,96.761
"2878107135",2082,school,KOMPLEK PASANTREN,3.758,96.804
"2879158944",2083,kindergarten,TPA,3.791,96.776
"2879176574",2082,school,SDN 2 Krueng Batee,3.785,96.790
"2879215157",2601,bank,BANK,3.823,96.760
"2879239119",2082,school,SEKOLAH SD,3.805,96.757
"2879239120",2082,school,SEKOLAH SD,3.805,96.757
"2879239121",2082,school,SEKOLAH SD,3.805,96.756
"2879239122",2082,school,SEKOLAH SD,3.805,96.757
"2879240689",2082,school,TPA TGK. TANTAWI,3.794,96.755
"2879250806",2110,hospital,Pustu Ladang Panah,3.627,96.937
"2879251431",2083,kindergarten,TK MALEM MUDA - LADANG PANAH,3.629,96.936
"2879251980",2082,school,DAYAH DUSUN PINANG BARIS - LADANG PANAH,3.627,96.937
"2879251981",2082,school,PESANTREN HUDA JADID,3.627,96.938
"2879270745",2082,school,DAYAH GAMPONG PADANG,3.640,96.952
"2879270754",2016,market_place,PASAR IKAN,3.622,96.940
"2879270755",2110,hospital,posyandu,3.641,96.953
"2879308209",2601,bank,BANK UNIT BRI MANGGENG,3.616,96.937
"2879308210",2014,arts_centre,GEDUNG KESENIAN KEC.MANGGENG,3.619,96.938
"2879308212",2099,public_building,KANTOR CAMAT MANGGGENG,3.621,96.931
"2879308213",2005,post_office,KANTOR POS MANGGENG,3.616,96.936
"2879308218",2016,market_place,PASAR MANGGENG,3.615,96.939
"2879308219",2110,hospital,PUSKESMAS MAIMAH,3.618,96.940
"2879308220",2082,school,SEKOLAH MIN NEGERI MANGGENG,3.619,96.934
"2879322273",2082,school,DAYAH GAMPONG KEDAI,3.614,96.938
"2879322276",2016,market_place,PASAR MANGGENG,3.616,96.936
"2879330717",2082,school,DAYAH AL-MUNAWARAH,3.636,96.930
"2879330718",2082,school,DAYAH PUSU INGIN JAYA,3.633,96.928
"2879330719",2252,pitch,LAPANGAN BOLA,3.634,96.928
"2879330721",2083,kindergarten,PAUD GAMPONG PUSU,3.636,96.929
"2879330722",2082,school,PESANTREN ASSALAFIAH AL WALIAH,3.630,96.930
"2879330723",2110,hospital,POSYANDU UNICEF,3.636,96.929
"2879330724",2082,school,SEKOLAH SD GAMPONG PUSU,3.632,96.929
"2879330725",2083,kindergarten,TK MADRASATUL ULLA,3.635,96.929
"2879380280",2082,school,DAYAH DAN PESANTREN UMUM,3.629,96.909
"2879380282",2082,school,DAYAH,3.623,96.928
"2879380283",2099,public_building,KANTOR KUA MANGGENG,3.621,96.931
"2879380291",2016,market_place,PASAR MANGGENG,3.614,96.939
"2879380292",2082,school,PESANTREN JABANUR JADIN,3.623,96.929
"2879380293",2082,school,PESANTREN NURUL HIDAYAH,3.630,96.909
"2879380295",2082,school,PESANTREN RAUDHATUL MUNAWARAH,3.629,96.908
"2879380296",2082,school,PESANTREN,3.633,96.914
"2879380297",2082,school,PONDOK PESANTREN DARUL IKHWAN,3.630,96.913
"2879380299",2110,hospital,PUSKESMAS KEC. MANGGENG,3.617,96.934
"2879380300",2082,school,SD NEGERI LHUNG BARO,3.627,96.922
"2879383301",2082,school,SD NEGERI PANTE PIRAK,3.627,96.904
"2879383302",2082,school,SD NEGERI PANTON MAKMU,3.632,96.911
"2879383303",2082,school,SMP NEGERI 3 MANGGENG,3.630,96.913
"2879383304",2083,kindergarten,TK SAFINATUL NAJAH,3.623,96.930
"2879384035",2082,school,SD NEG. 3 MANGGENG,3.617,96.935
"2879384036",2083,kindergarten,TK,3.616,96.934
"2879480873",2110,hospital,PUSTU PANTE RAJA,3.617,96.918
"2879492999",2099,public_building,BALAI MESJID,3.627,96.903
"2879497301",2082,school,PESANTREN BUDI IKHSAN,3.629,96.901
"2879509340",2252,pitch,LAPANGAN BOLA VOLI,3.627,96.899
"2879509341",2016,market_place,PASAR IKAN,3.622,96.896
"2879509343",2083,kindergarten,TK HARAPAN PERSADA,3.626,96.898
"2879513112",2099,public_building,GEDUNG PKK - GUDANG,3.622,96.897
"2879513113",2099,public_building,GEDUNG PKK - GUDANG,3.622,96.897
"2879513114",2099,public_building,GEDUNG SERBA GUNA,3.622,96.897
"2879520720",2252,pitch,LAPANGAN BOLA KAKI,3.610,96.908
"2879520721",2252,pitch,LAPANGAN BOLA KAKI,3.621,96.903
"2879528080",2082,school,DAYAH BLANG MANGGENG,3.605,96.927
"2879528089",2110,hospital,PUSTU BLANG MANGGGENG,3.606,96.928
"2879528090",2110,hospital,PUSTU GAMPONG SEJAHTERA,3.604,96.920
"2879528091",2082,school,SD NEGERI BLANG MANGGENG,3.607,96.924
"2879528092",2082,school,SD NEGERI NO.1 GAMPONG SEJAHTERA,3.603,96.920
"2879531803",2099,public_building,KANTOR DESA TOKOH,3.608,96.932
"2879538590",2082,school,PAUD GAMPONG TOKOH,3.607,96.931
"2879538591",2110,hospital,POLINDES GAMPONG TOKOH,3.607,96.931
"2879539678",2724,memorial,KUBURAN ABU BAKAR,3.608,96.924
"2879539679",2724,memorial,KUBURAN UMUM,3.623,96.897
"2879539680",2724,memorial,KUBURAN UMUM,3.624,96.898
"2879539681",2724,memorial,KUBURAN UMUM,3.628,96.907
"2879541067",2724,memorial,KUBURAN UMUM GAMPONG TENGAH,3.612,96.935
"2879541068",2724,memorial,KUBURAN UMUM GAMPONG TOKOH,3.608,96.932
"2879551485",2099,public_building,POS RONDA,3.615,96.939
"2879551496",2724,memorial,KUBURAN UMUM GAMPONG PAYA,3.618,96.931
"2879553857",2724,memorial,KUBURAN UMUM BLANG MANGGENG,3.605,96.925
"2879553859",2724,memorial,KUBURAN UMUM,3.604,96.922
"2879565993",2099,public_building,KANTOR PETERNAKAN,3.622,96.923
"2879734150",2099,public_building,kantor desa blang manggeng,3.606,96.927
"2879738319",2252,pitch,LAPANGAN BOLA VOLI,3.606,96.926
"2879746499",2099,public_building,KANTOR DESA TOKOH (KANTOR LAMA),3.609,96.932
"2879755722",2724,memorial,Kuburun Umum Dusun Lhung Kandeh Gampong Pante Raja,3.624,96.912
"2879768813",2724,memorial,KUBURAN UMUM GAMPONG SEJAHTERA,3.609,96.910
"2879768814",2110,hospital,POLINDES (KEADAAN RUSAK),3.607,96.911
"2879799174",2503,kiosk,KIOS ADNAN,3.606,96.903
"2879799175",2741,picnic_site,LOKASI PANTAI UJUNG MANGGGENG,3.610,96.901
"2879811685",2110,hospital,PUSKESDES GAMPONG PANTE CERMIN,3.623,96.906
"2879827114",2099,public_building,BARAK PENGUNGSI DISEBABKAN KEBAKARAN TOKO,3.603,96.921
"2879827115",2252,pitch,LAPANGAN BOLA KAKI,3.612,96.936
"2879827141",2099,public_building,POS RONDA,3.603,96.921
"2879973614",2724,memorial,KUBURAN UMUM GAMPONG UJUNG PADANG,3.624,96.927
"2884721240",2302,fast_food,,3.822,96.761
"2884721241",2083,kindergarten,,3.823,96.761
"2884734779",2731,castle,,3.823,96.761
"2884757345",2601,bank,,3.820,96.762
"2884768765",2561,hairdresser,SALON BANG JAMA,3.822,96.760
"2884769456",2903,drinking_water,TOKO AIR MINUM ASYIFA,3.821,96.761
"2884769457",2903,drinking_water,TOKO AIR MINUM IE SYEQUNNA,3.822,96.761
"2884769458",2903,drinking_water,TOKO AIR MINUM MOUNT PANTO,3.823,96.760
"2884774177",2561,hairdresser,SALON BANG WAH,3.823,96.760
"2889036396",2082,school,SDN BLANG MAKMUR,3.816,96.764
"2893034527",2511,convenience,Alfamart,-4.928,105.212
"2894759278",2111,clinic,,3.888,96.684
"2897384535",2082,school,SDN DESA GADANG,3.732,96.830
"2897391534",2099,public_building,KANTOR DESA,3.734,96.832
"2897398613",2099,public_building,KANTOR DESA,3.731,96.831
"2897400005",2082,school,TPA,3.731,96.831
"2897540959",2903,drinking_water,PDAM,3.734,96.832
"2898556187",2732,ruins,BENTENG KU,3.728,96.835
"2898712460",2701,tourist_info,PUSONG ISLAND,3.698,96.826
"2909071741",2303,cafe,Warung Ninik Mamak,-0.626,100.125
"2909071742",2008,town_hall,Balaikota Pariaman,-0.629,100.139
"2911310682",2016,market_place,Pasar Sijunjung,-0.701,100.980
"2916885940",2743,zoo,Kebun Binatang,3.483,98.643
"2918152804",2110,hospital,Klinik Mutia Medika,2.642,98.006
"2918157633",2082,school,MIN Simpang Kiri,2.640,98.009
"2918166514",2401,hotel,Penginapan Khairulsyah,2.641,98.007
"2918242329",2301,restaurant,Harmes One Restaurant,2.637,98.014
"2918242661",2303,cafe,BARAK (Bakso Raksasa),2.636,98.013
"2919713786",2110,hospital,Klinik Bidan Khairuna,2.641,98.007
"2919734937",2252,pitch,Lapangan kicker,3.569,98.702
"2920076408",2252,pitch,Lapangan Baseball Hutan Kota,-5.382,105.282
"2920304061",2501,supermarket,Gelora,3.574,98.703
"2920585606",2723,monument,Tugu Bank Aceh Kota Subulussalam,2.642,98.002
"2921319201",2501,supermarket,Giant,3.569,98.699
"2921323101",2513,florist,Shinta Indah Florist,3.567,98.699
"2921465798",2401,hotel,The Heroes Hotel,3.569,98.692
"2921473440",2120,doctors,Dr. Amri Mubarok Hasibuan,3.565,98.699
"2921473441",2121,dentist,Drg. Nelly Umriati Hasibuan dan Drg. Nurbaiti Hasibuan,3.565,98.699
"2921493687",2601,bank,Bank Mandiri,3.564,98.693
"2921498408",2082,school,SMA UISU,3.562,98.694
"2921522650",2561,hairdresser,Pangkas Mahligai,3.568,98.699
"2921543445",2251,sports_centre,Casanova,3.568,98.699
"2921543446",2501,supermarket,Indomaret,3.568,98.700
"2922455692",2501,supermarket,Irian Supermarket,3.568,98.703
"2922916860",2082,school,SMP Negeri 1 Telukdalam,0.573,97.822
"2922917439",2950,tower,Tower Telokomsel,3.561,98.691
"2922926952",2016,market_place,Pasar Amerika,0.569,97.820
"2934519501",2082,school,SMP Negeri 1 Gunungsitoli,1.283,97.622
"2949534455",2016,market_place,Pasar Balige,2.334,99.066
"2950058097",2301,restaurant,Restoran Bukit Golf,-2.958,104.770
"2957405407",2301,restaurant,Papa Ibam Pizza,1.665,101.447
"2958054314",2016,market_place,PASAR WIYONO,-5.373,105.130
"2958321072",2301,restaurant,Miroso,1.669,101.462
"2962669320",2401,hotel,Hotel Emily,-2.985,104.754
"2964250222",2741,picnic_site,Pantai Purnama,1.698,101.409
"2965989517",2301,restaurant,Bungawan Resto,1.679,101.454
"2967057434",2301,restaurant,Ampera Rizki,2.158,100.809
"2967116943",2742,viewpoint,Batu Enam,2.100,100.815
"2972675938",2005,post_office,Kantor Pos,1.680,101.456
"2979734351",2302,fast_food,CFC,1.678,101.446
"2984142743",2951,comms_tower,Menara Telkom,1.678,101.446
"2987851135",2722,museum,Museum Pusaka Nias,1.298,97.609
"2987851140",2743,zoo,Mini Zoo,1.299,97.609
"2999179567",2601,bank,PT PNM Persero Cab Jambi (ULaMM Rimbo Bujang),-1.313,102.104
"3001948675",2401,hotel,Minas Home Stay,-0.305,100.378
"3002544539",2741,picnic_site,Paintai Carocok,-1.352,100.566
"3005709120",2950,tower,,3.911,108.386
"3005709527",2082,school,,3.928,108.373
"3006379802",2401,hotel,Grand Zuri,1.676,101.449
"3010116485",2081,university,STIE Harapan,3.576,98.678
"3011800031",2501,supermarket,Plaza Aviari,1.052,103.969
"3011800032",2501,supermarket,Supermarket Gross Prima,1.052,103.975
"3013998347",2301,restaurant,Arun Basecamp,5.218,97.051
"3015894892",2501,supermarket,TRONA Jambi,-1.604,103.619
"3017682009",2601,bank,Bank Mandiri,5.218,97.050
"3017682010",2529,beauty_shop,,5.218,97.050
"3017682011",2601,bank,Bank Mandiri Syariah,5.218,97.050
"3017698658",2723,monument,Tugu Arun,5.219,97.049
"3026717017",2301,restaurant,Ayam Lepas,5.179,97.146
"3026717018",2601,bank,Bank Mandiri Syariah,5.179,97.146
"3039148060",2401,hotel,Surya,-0.303,100.368
"3039148061",2401,hotel,Dahlia,-0.302,100.369
"3039161506",2742,viewpoint,Terraced rice fields,-0.462,100.496
"3039166738",2721,attraction,Old Minang houses,-0.467,100.570
"3039166739",2016,market_place,,-0.458,100.593
"3039166740",2721,attraction,Pacu Jawi grounds,-0.430,100.541
"3039166741",2721,attraction,lots of traditional houses,-0.435,100.551
"3039166743",2401,hotel,Yoherma,-0.453,100.593
"3039166744",2404,guesthouse,Rajawali,-0.299,100.369
"3042576309",2501,supermarket,Suzuya,5.178,97.148
"3042894054",2081,university,Universitas Muhammdiyah Sumatera Utara,3.614,98.675
"3045550473",2701,tourist_info,,5.220,97.050
"3045550474",2701,tourist_info,,5.219,97.050
"3045550476",2303,cafe,,5.220,97.050
"3045550477",2303,cafe,,5.220,97.050
"3045550485",2951,comms_tower,,5.220,97.052
"3045551362",2951,comms_tower,,5.210,97.040
"3045925983",2401,hotel,losmen Surya,-0.950,100.356
"3045925984",2404,guesthouse,Yani's backpackers,-0.961,100.354
"3045974012",2951,comms_tower,,5.203,97.051
"3048769047",2016,market_place,,3.190,98.510
"3050091158",2301,restaurant,,3.443,98.152
"3050091164",2404,guesthouse,,3.447,98.149
"3050091170",2404,guesthouse,,3.448,98.148
"3050162948",2404,guesthouse,Indah,3.549,98.124
"3050162949",2303,cafe,,3.543,98.133
"3051498753",2731,castle,Istana Pagar Ruyung,-0.472,100.621
"3051529341",2742,viewpoint,Waterfall,-0.484,100.338
"3051529345",2253,swimming_pool,,-0.478,100.348
"3052424442",2301,restaurant,Sari Maya,5.218,97.055
"3053000879",2601,bank,Bank BRI,5.219,97.053
"3053774180",2951,comms_tower,,5.219,97.081
"3053774206",2701,tourist_info,,5.216,97.078
"3053822587",2953,observation_tower,,5.211,97.101
"3053822588",2953,observation_tower,,5.213,97.102
"3055518169",2404,guesthouse,Brigitte's House,-0.962,100.358
"3058664720",2723,monument,Tugu,-1.479,101.053
"3066287881",2204,park,"Sumber Air Bersih Kelok Batuang, Jorong Lubuk Selasih",-0.987,100.600
"3066577363",2082,school,Sekolah Alam Mahira,-3.803,102.282
"3066948114",2601,bank,,5.228,97.035
"3068203922",2301,restaurant,RM Sumpit Mas,-3.833,102.308
